District code,State name,District name,Population,Male,Female,Literate,Male_Literate,Female_Literate,SC,Non_Workers,Cultivator_Workers,Agricultural_Workers,Household_Workers,Other_Workers,Hindus,Muslims,Christians,Sikhs,Buddhists,Jains,Others_Religions,Religion_Not_Stated,LPG_or_PNG_Households,Housholds_with_Electric_Lighting,Households_with_Internet,Households_with_Computer,Rural_Households,Urban_Households,Households,Below_Primary_Education,Primary_Education,Middle_Education,Secondary_Education,Higher_Education,Graduate_Education,Other_Education,Literate_Education,Illiterate_Education,Total_Education,Age_Group_0_29,Age_Group_30_49,Age_Group_50,Age not stated,Main_source_of_drinking_water_Handpump_Tubewell_Borewell_Households,Main_source_of_drinking_water_Spring_Households,Main_source_of_drinking_water_River_Canal_Households,Main_source_of_drinking_water_Other_sources_Households,Main_source_of_drinking_water_Other_sources_Spring_River_Canal_Tank_Pond_Lake_Other_sources__Households,Location_of_drinking_water_source_Near_the_premises_Households,Location_of_drinking_water_source_Within_the_premises_Households,Main_source_of_drinking_water_Tank_Pond_Lake_Households,Main_source_of_drinking_water_Tapwater_Households,Main_source_of_drinking_water_Tubewell_Borehole_Households,Location_of_drinking_water_source_Away_Households,State,District,Latitude,Longitude,sex ratio,literacy_rate,male_literacy_rate,female_literacy_rate
4,JAMMU AND KASHMIR,Kargil,140802,77785,63017,86236,56301,29935,18,88929,8266,3763,1222,38622,10341,108239,604,1171,20126,28,4,289,3285,15824,235,1005,40370,7774,48144,12732,19083,20874,16938,9826,3077,408,82938,39854,122792,87532,35561,17488,221,3289,323,2641,907,4068,9218,1963,197,10769,19,7031,Jammu and Kashmir,Kargil,33.565994894894914,76.63675315315312,81.0,61.0,72.0,48.0
5,JAMMU AND KASHMIR,Punch,476835,251899,224936,261724,163333,98391,556,315442,54264,31583,3930,71616,32604,431279,958,11188,83,10,2,711,13160,62900,346,3342,132139,15269,147408,55762,72024,69219,46062,29517,13962,1884,288430,164044,452474,304979,109818,61334,704,4036,12448,1351,5351,19458,33146,17078,308,43697,234,38654,Jammu and Kashmir,Punch,33.791241290322574,74.29593161290322,89.0,55.0,65.0,44.0
7,JAMMU AND KASHMIR,Kathua,616435,326109,290326,389204,228499,160705,141224,416004,69533,21566,3952,105380,540063,64234,1828,9551,24,16,2,717,32772,109422,1443,6112,181374,33473,214847,69396,82715,106411,91522,47694,24330,4504,426572,181297,607869,357864,160123,97684,764,31020,8978,860,5595,16204,36594,52019,771,61227,3438,29223,Jammu and Kashmir,Kathua,32.51781678321678,75.58901398601404,89.0,63.0,70.0,55.0
10,JAMMU AND KASHMIR,Srinagar,1236829,651124,585705,748584,431746,316838,1068,829641,12228,10408,20095,364457,42540,1177342,2746,12187,285,74,2,1653,138119,165403,16413,33831,4518,257721,262239,88911,173309,178723,176409,132727,121856,32114,904049,310225,1214274,693238,351561,190330,1700,1563,55,669,317,1105,7457,157176,64,164426,692,2815,Jammu and Kashmir,Srinagar,34.27312898550724,75.11021159420288,90.0,61.0,66.0,54.0
12,JAMMU AND KASHMIR,Pulwama,560440,293064,267376,293958,178326,115632,402,372020,49746,34080,10615,93979,13840,535159,1109,9440,35,6,18,833,16828,73629,1537,5293,147520,21703,169223,36201,54808,73991,67368,40931,31286,5897,310482,190369,500851,342601,137032,80111,696,13347,660,8108,929,10127,19320,50893,430,56749,3413,11028,Jammu and Kashmir,Pulwama,33.88414418604652,75.00921860465118,91.0,52.0,61.0,43.0
16,JAMMU AND KASHMIR,Doda,409936,213641,196295,219083,138620,80463,53408,258024,69947,12199,1932,67834,187621,220614,472,422,21,22,42,722,7963,61831,596,3077,122267,11350,133617,43794,47350,62719,48359,31416,12647,1846,248131,163565,411696,263576,93189,52744,427,202,4545,978,2063,7847,35304,25054,261,66002,60,18262,Jammu and Kashmir,Doda,33.359614675767915,76.07163720136518,92.0,53.0,65.0,41.0
19,JAMMU AND KASHMIR,Udhampur,554985,296784,258201,322354,197543,124811,138569,311313,113020,11396,2641,116615,489044,59771,1962,3418,106,57,235,392,20008,73999,1214,5744,148664,34696,183360,58567,80129,86008,55024,29657,17345,4030,330760,194838,525598,339145,140785,74757,298,4742,21428,1825,5848,29883,36891,21585,782,47796,166,35086,Jammu and Kashmir,Udhampur,33.04770670731707,75.15286951219511,87.0,58.0,67.0,48.0
21,JAMMU AND KASHMIR,Jammu,1529958,813821,716137,1137135,641916,495219,377991,1021336,68613,36873,10589,392547,1289240,107489,12104,114272,470,1987,321,4075,197168,294739,19905,46657,254566,248043,502609,135391,185962,253542,261852,159257,146501,30616,1173121,268279,1441400,816827,435895,275585,1651,117098,1716,671,3680,7748,46394,233123,1681,168693,8076,22499,Jammu and Kashmir,Jammu,32.713199095022645,74.8477520361991,88.0,74.0,79.0,69.0
23,HIMACHAL PRADESH,Chamba,519080,261320,257760,323842,186064,137778,111690,225045,196665,9193,4521,83656,479782,32455,1559,2745,1740,57,14,728,21458,96082,1615,5117,186395,13836,200231,56272,96789,67653,64515,40440,15506,3252,344427,154575,499002,306555,130606,81566,353,1031,1834,371,1749,4108,55088,36220,154,96451,9,10664,Himachal Pradesh,Chamba,32.66741814595661,76.39354063116366,99.0,62.0,71.0,53.0
24,HIMACHAL PRADESH,Kangra,1510075,750591,759484,1152640,606443,546197,319385,834905,303007,54849,15662,301652,1461140,19797,3023,8929,14511,194,208,2273,148361,330081,8053,22753,588321,39007,627328,127699,243617,223099,284124,192936,91236,13577,1176288,271892,1448180,766581,419172,319420,4902,18358,1441,237,3377,5699,105689,200604,644,301016,1716,30114,Himachal Pradesh,Kangra,32.14093603238864,76.41205910931173,101.0,76.0,81.0,72.0
26,HIMACHAL PRADESH,Kullu,437903,225452,212451,307672,174550,133122,122659,168819,197141,12372,2707,56864,415669,2974,1568,1396,15377,94,83,742,40064,91322,2623,7010,167995,20709,188704,48384,77363,61854,58122,39081,23168,2377,310349,103136,413485,244727,120510,72282,384,1753,794,610,2918,4773,38399,46354,451,87848,271,10792,Himachal Pradesh,Kullu,31.90911922077925,77.40922649350647,94.0,70.0,77.0,63.0
27,HIMACHAL PRADESH,Mandi,999777,498065,501712,723747,393669,330078,293739,427106,387944,15822,7134,161771,981412,9460,876,4081,2628,43,86,1191,59324,214491,5333,16401,431129,31696,462825,100052,159043,132147,180188,128549,54139,9350,763468,218570,982038,524285,279321,194661,1510,1860,470,455,2854,4828,84301,123062,1049,209375,142,12631,Himachal Pradesh,Mandi,31.635805940594054,76.96556930693067,101.0,72.0,79.0,66.0
28,HIMACHAL PRADESH,Hamirpur,454768,217070,237698,358091,180555,177536,109256,212837,147103,8824,3347,82657,449412,3711,243,591,95,293,9,414,34978,104120,2521,7525,196116,15232,211348,37327,71107,72114,91184,64363,35620,5263,376978,72551,449529,224044,123941,106641,142,5691,91,22,353,606,29624,69696,140,94807,208,5748,Himachal Pradesh,Hamirpur,31.67668481012659,76.49767088607594,110.0,79.0,83.0,75.0
28,HIMACHAL PRADESH,Hamirpur,454768,217070,237698,358091,180555,177536,109256,212837,147103,8824,3347,82657,449412,3711,243,591,95,293,9,414,34978,104120,2521,7525,196116,15232,211348,37327,71107,72114,91184,64363,35620,5263,376978,72551,449529,224044,123941,106641,142,5691,91,22,353,606,29624,69696,140,94807,208,5748,Uttar Pradesh,Hamirpur,25.738158381502892,79.82619479768789,110.0,79.0,83.0,75.0
29,HIMACHAL PRADESH,Una,521173,263692,257481,399715,213281,186434,115491,305827,84800,19604,3427,107515,480138,14275,390,26009,56,70,10,225,43809,105929,2412,8238,185091,20126,205217,51838,87913,81256,105204,60626,32120,5511,424468,87735,512203,273223,142351,105358,241,11627,78,48,353,607,30021,71588,128,93873,2419,8090,Himachal Pradesh,Una,31.58330388349513,76.18353932038836,98.0,77.0,81.0,72.0
30,HIMACHAL PRADESH,Bilaspur,381956,192764,189192,287620,155599,132021,98989,176085,127169,4138,2561,72003,371973,6984,236,2387,113,10,7,246,17262,79146,1574,6281,152458,11987,164445,35817,59489,53515,64730,45695,25474,3241,287961,65864,353825,193671,107367,80497,421,5617,513,43,1663,2978,28605,42589,759,67847,477,9259,Chhattisgarh,Bilaspur,22.356942982456143,81.99770350877188,98.0,75.0,81.0,70.0
30,HIMACHAL PRADESH,Bilaspur,381956,192764,189192,287620,155599,132021,98989,176085,127169,4138,2561,72003,371973,6984,236,2387,113,10,7,246,17262,79146,1574,6281,152458,11987,164445,35817,59489,53515,64730,45695,25474,3241,287961,65864,353825,193671,107367,80497,421,5617,513,43,1663,2978,28605,42589,759,67847,477,9259,Himachal Pradesh,Bilaspur,31.3780422907489,76.65316079295157,98.0,75.0,81.0,70.0
31,HIMACHAL PRADESH,Solan,580320,308754,271566,428578,244372,184206,164536,281583,141267,10283,4969,142218,548579,14678,1452,13926,574,591,110,410,53722,119866,5250,14478,192787,51509,244296,50331,89407,83992,95232,59363,36803,8280,423408,104084,527492,321533,167168,90808,811,6105,1683,472,5371,8674,35692,74848,1148,103964,3148,12813,Himachal Pradesh,Solan,31.03864311926604,76.94442140672783,88.0,74.0,79.0,68.0
32,HIMACHAL PRADESH,Sirmaur,529855,276289,253566,362645,205617,157028,160745,249772,182958,10730,5313,81082,476830,33215,577,15501,2645,236,86,765,28904,91509,2220,8593,171102,21054,192156,57853,100123,78103,67080,38282,23352,4048,368841,140486,509327,310244,136839,82471,301,8795,1993,1297,3558,7958,40315,39659,1110,75607,1045,17116,Himachal Pradesh,Sirmaur,30.682764453961443,77.43184689507493,92.0,68.0,74.0,62.0
33,HIMACHAL PRADESH,Shimla,814010,425039,388971,612642,342846,269796,215777,383084,249786,26114,7967,147059,791449,11810,2025,4047,3262,185,197,1035,108888,172754,9177,24127,279269,95896,375165,69967,113536,113305,141490,95341,80414,9748,623801,137576,761377,425721,241956,145577,756,1382,1051,1134,4795,8370,58532,102066,1390,166551,70,20172,Himachal Pradesh,Shimla,31.155725451807253,77.62573042168668,92.0,75.0,81.0,69.0
34,HIMACHAL PRADESH,Kinnaur,84121,46249,37872,60699,36697,24002,14750,27848,32995,2537,944,19797,64732,448,485,249,18086,29,45,47,10740,17865,354,2563,44514,0,44514,9400,13749,11437,11140,7871,5118,713,59428,16944,76372,42360,26599,15075,87,130,282,174,561,1115,6083,11752,98,17996,86,1700,Himachal Pradesh,Kinnaur,31.60667184065933,78.51613736263741,82.0,72.0,79.0,63.0
35,PUNJAB,Gurdaspur,2298323,1212617,1085706,1634719,907660,727059,580576,1541185,147912,100684,30903,477639,1074332,27667,176587,1002874,405,580,812,15066,244468,411216,14428,38445,420860,185488,606348,180897,315156,290618,372317,243539,104345,22107,1528979,478020,2006999,1261421,611353,423301,2248,298315,235,347,3352,4082,30846,393314,148,124910,89511,7052,Punjab,Gurdaspur,32.04283371212125,75.3204064393939,90.0,71.0,75.0,67.0
36,PUNJAB,Kapurthala,815168,426311,388857,576567,316254,260313,276707,531003,55252,42387,9861,176665,336124,10190,5445,453692,6662,553,334,2168,110555,161206,9732,23145,165433,95770,261203,71698,127031,112774,128828,77442,48221,9501,575495,174995,750490,433331,222324,157833,1680,75439,42,119,1897,2111,14783,145612,53,87546,42939,4941,Punjab,Kapurthala,31.336592638036837,75.47641165644177,91.0,71.0,74.0,67.0
37,PUNJAB,Jalandhar,2193590,1145211,1048379,1622537,882581,739956,854444,1419118,85695,66664,29762,592351,1394329,30233,26016,718363,11385,4011,805,8448,299449,446200,39082,79134,330339,377791,708130,183441,333736,304652,339758,216646,162965,34576,1575774,387809,1963583,1159156,616431,416449,1554,151053,135,113,4639,4947,35640,409159,60,297183,80682,9274,Punjab,Jalandhar,31.250336907216507,75.54400350515463,92.0,74.0,77.0,71.0
38,PUNJAB,Hoshiarpur,1586625,809057,777568,1199699,637927,561772,557504,1086803,89772,74362,15990,319698,1000743,23089,14968,538208,3476,2034,531,3576,201675,319930,13747,34328,422673,128592,551265,143871,256127,238975,301435,176013,93618,17427,1227466,294723,1522189,831741,422782,330671,1431,145269,101,125,4106,4460,37705,278909,128,177302,52828,13080,Punjab,Hoshiarpur,31.55157169811319,75.8469857442349,96.0,76.0,79.0,72.0
40,PUNJAB,Fatehgarh Sahib,600163,320795,279368,426033,238696,187337,192493,385380,44245,21389,8048,141101,152851,16808,1698,427521,48,178,251,808,64037,113683,5138,14294,117559,57337,174896,51897,102257,83931,95073,59555,34990,4607,432310,142314,574624,321018,166781,111028,1336,68438,21,75,2699,2829,8403,104951,34,44186,47359,2399,Punjab,Fatehgarh Sahib,30.64290947368421,76.36208394736842,87.0,71.0,74.0,67.0
41,PUNJAB,Ludhiana,3498739,1867816,1630923,2560225,1428348,1131877,923358,2213917,140737,98646,71667,973772,1502403,77713,16517,1863408,2007,19620,1254,15817,488757,703624,58589,123400,395032,641789,1036821,277247,488129,443759,527568,318876,272280,44240,2372099,631980,3004079,1901528,980046,614258,2907,269706,208,310,5851,6585,43609,660590,216,438455,127188,11905,Punjab,Ludhiana,30.76596397379912,75.83110851528383,87.0,73.0,76.0,69.0
42,PUNJAB,Moga,995746,525920,469826,627889,348549,279340,363417,636574,91622,82397,18098,167055,158414,9388,3277,818921,178,436,365,4767,89445,183396,7897,21662,214295,74144,288439,98764,158812,116716,128693,85642,37417,11956,638000,306336,944336,535408,258826,194768,6744,91646,66,209,6865,7339,25433,151928,199,91608,71851,13867,Punjab,Moga,30.756540067340065,75.1600845117845,89.0,63.0,66.0,59.0
43,PUNJAB,Firozpur,2029074,1071637,957437,1227511,707070,520441,855726,1272379,191685,227971,14679,322360,906408,6844,19358,1090815,454,1143,278,3774,141899,349662,10042,31070,348522,153868,502390,196971,306838,226433,221806,147698,82448,25734,1207928,714869,1922797,1171770,525459,331259,586,196377,90,3947,8539,13729,55030,286759,1153,161386,47667,32378,Punjab,Firozpur,30.63407535211269,74.40245732394365,89.0,60.0,66.0,54.0
44,PUNJAB,Muktsar,901896,475622,426274,524848,300401,224447,381554,566570,86565,111014,5187,132560,254920,4333,1681,638625,240,744,433,920,76441,166585,4571,14077,149507,74650,224157,90240,137470,101852,104682,62612,36905,10666,544427,340886,885313,495167,242628,162297,1804,72452,50,1632,3314,5201,27435,125869,205,94584,2897,19488,Punjab,Muktsar,30.31243303303303,74.5518747747748,90.0,58.0,63.0,53.0
45,PUNJAB,Faridkot,617508,326671,290837,381285,215767,165518,240328,395953,53230,54058,8225,106042,141363,3125,1227,469789,155,1109,103,637,62103,113549,4348,12276,99946,58917,158863,53734,89433,71178,75419,48360,29838,5790,373752,204895,578647,336540,164962,113721,2285,65489,17,1163,2150,3357,11352,95315,27,48872,11685,11526,Punjab,Faridkot,30.591187250996025,74.79751553784862,89.0,62.0,66.0,57.0
46,PUNJAB,Bathinda,1388525,743197,645328,844868,488261,356607,450473,838539,141535,128382,14938,265131,380569,16299,2474,984286,246,1266,559,2826,118427,255650,11284,32253,218159,137563,355722,117795,182796,145626,163928,96329,70240,16666,793380,438529,1231909,754927,377707,255283,608,105388,62,1530,5164,8012,39408,211601,1256,151659,43730,15026,Punjab,Bathinda,30.190524611973352,75.05685898004438,87.0,61.0,66.0,55.0
47,PUNJAB,Mansa,769751,408732,361019,423560,244037,179523,258878,441239,105963,90367,13442,118740,156539,10375,917,598443,123,1577,493,1284,39414,140099,2673,10085,145603,50786,196389,75708,106162,84553,85953,48663,27461,5658,434158,311513,745671,420050,200882,146103,2716,69458,45,1205,4032,5390,23021,108275,108,71808,25087,15831,Punjab,Mansa,29.919547714285724,75.4304922857143,88.0,55.0,60.0,50.0
48,PUNJAB,Patiala,1895686,1002522,893164,1266791,711052,555739,465359,1235419,113182,89123,23647,434315,783306,40043,5683,1059944,245,1914,1410,3141,209192,352929,24274,55105,299279,218090,517369,173890,283837,239609,256826,157435,141947,27272,1280816,518772,1799588,1042519,517079,335100,988,144431,84,213,8370,8828,39120,306941,161,207661,119054,15679,Punjab,Patiala,30.214540380693364,76.27505893949697,89.0,67.0,71.0,62.0
49,PUNJAB,Amritsar,2490656,1318408,1172248,1684770,932981,751789,770864,1572800,124617,121599,41642,629998,690939,12502,54344,1716935,876,3152,1044,10864,279993,461231,29961,63864,275477,385476,660953,197944,313874,283819,328229,203656,142399,15879,1485800,540010,2025810,1384987,667193,436496,1980,253217,99,255,7144,7674,26122,447498,176,218410,127669,6683,Punjab,Amritsar,31.548679820627772,74.79883856502238,89.0,68.0,71.0,64.0
51,PUNJAB,Rupnagar,684627,357485,327142,502731,278534,224197,180905,450951,45640,21520,12321,154195,304481,14492,2094,361045,118,653,143,1601,67749,129123,6600,17542,148162,60537,208699,53005,107715,98135,116836,68794,38823,9388,492696,124100,616796,365300,185424,131707,2196,45581,199,218,1544,2047,17770,107694,86,80769,16514,7390,Punjab,Rupnagar,30.910937330754347,76.53743500967126,92.0,73.0,78.0,69.0
53,PUNJAB,Sangrur,1655169,878029,777140,1002077,570413,431664,461609,1086411,157191,91799,18578,301190,389410,179116,2406,1077438,268,3222,1038,2271,135280,305557,10736,30955,292156,156788,448944,163251,250833,197901,220210,130155,73636,18393,1054379,570103,1624482,904316,435148,311621,4084,153898,66,321,8094,8892,41855,255649,411,150522,120978,16526,Punjab,Sangrur,30.185045204336895,75.89437014178496,89.0,61.0,65.0,56.0
55,CHANDIGARH,Chandigarh,1055450,580663,474787,805438,465346,340092,199086,651314,2578,1687,4799,395072,852574,51447,8720,138329,1160,1960,246,1014,168344,231204,44283,78113,8911,289456,298367,80406,118667,114209,124707,98786,174528,20188,731491,184265,915756,602411,303748,148945,346,6167,36,12,1120,1372,27384,202495,204,227354,2001,5182,Chandigarh,Chandigarh,30.7426,76.75872465753424,82.0,76.0,80.0,72.0
56,UTTARAKHAND,Uttarkashi,330086,168597,161489,215126,128237,86889,80567,172810,117264,4387,3122,32503,324859,3554,353,167,563,74,105,411,21374,52621,602,4104,112148,9061,121209,43442,46625,47640,30901,24989,18882,981,213460,83896,297356,202426,75997,51245,418,1265,2743,1367,5884,10524,19107,28531,530,53576,7,18920,Uttaranchal,Uttarkashi,30.968958552036234,78.56880615384617,96.0,65.0,76.0,54.0
57,UTTARAKHAND,Chamoli,391605,193991,197614,280556,155395,125161,79317,210665,121157,3845,5384,50554,385818,4395,428,323,190,11,23,417,27853,71524,899,5582,163434,22906,186340,47447,68435,67519,47703,32557,27168,2367,293196,61950,355146,229715,93182,67873,835,967,1940,847,6637,10016,32596,31825,592,73654,9,21344,Uttaranchal,Chamoli,30.58338611464965,79.56281095541402,102.0,72.0,80.0,63.0
59,UTTARAKHAND,Tehri Garhwal,618931,297986,320945,407994,227406,180588,102130,338489,187121,8129,4021,81171,609835,7374,656,290,32,91,109,544,50929,117239,1366,7831,227059,27177,254236,72163,103462,95417,74008,58434,30704,2073,436261,133013,569274,368324,139371,109998,1238,7511,8444,2673,6619,19849,50396,43048,2113,103160,49,40050,Uttaranchal,Tehri Garhwal,30.463700918635173,78.48783792650917,108.0,66.0,76.0,56.0
62,UTTARAKHAND,Pithoragarh,483439,239306,244133,345550,189623,155927,120378,266949,137332,5432,6055,67671,475105,6015,1401,260,185,13,30,430,45365,95421,1344,7932,183687,26256,209943,63591,87585,90983,56591,42086,28375,2237,371448,88036,459484,273494,116749,92517,679,5118,1161,2067,9189,14201,40377,46575,1784,88949,16,24590,Uttaranchal,Pithoragarh,30.14720631868129,80.34229230769236,102.0,71.0,79.0,64.0
63,UTTARAKHAND,Bageshwar,259898,124326,135572,179483,97546,81937,72061,136260,85125,8985,2991,26537,257509,1440,397,46,102,7,16,381,13352,47083,435,3595,96031,3880,99911,38113,47788,50340,31224,20785,10900,675,199825,49539,249364,147488,60569,51672,169,1888,613,983,4948,7697,27478,14315,1153,45834,31,15919,Uttaranchal,Bageshwar,29.98703393393397,79.83954354354357,109.0,69.0,78.0,60.0
64,UTTARAKHAND,Almora,622506,291081,331425,436497,231604,204893,150995,324295,207617,10274,4312,76008,611250,7752,1895,256,201,31,6,1115,40199,109876,1830,9858,260056,21082,281138,90864,120029,115810,76148,53026,37742,2263,495882,109556,605438,351595,141238,128994,679,5856,1502,2135,11918,17502,65744,36378,1947,112049,37,37135,Uttaranchal,Almora,29.683532133676103,79.50165064267351,114.0,70.0,80.0,62.0
65,UTTARAKHAND,Champawat,259648,131125,128523,177726,102015,75711,47383,160082,59993,4032,1570,33971,249563,8693,870,336,24,28,6,128,18785,37725,548,3159,85202,12839,98041,36127,48093,45766,23610,18360,15110,1317,188383,62429,250812,156916,60722,41913,97,9321,477,1076,4091,6774,19586,19181,1130,34183,603,13589,Uttaranchal,Champawat,29.29142393939393,80.07720212121217,98.0,68.0,78.0,59.0
67,UTTARAKHAND,Udham Singh Nagar,1648902,858783,790119,1037839,598525,439314,238264,1057444,122686,165250,26396,277126,1104452,372267,6064,162768,505,738,159,1949,116576,254802,7883,28053,269406,145253,414659,179602,302653,232381,169274,113661,111062,11786,1120419,438598,1559017,1042614,392370,212223,1695,185252,26,72,3483,3891,45902,242986,310,110297,9841,11164,Uttaranchal,Udham Singh Nagar,29.02779577677222,79.45629004524895,92.0,63.0,70.0,56.0
69,HARYANA,Panchkula,561293,299679,261614,405318,229862,175456,101830,349814,26682,12827,9870,162100,490702,23451,2583,40951,1008,1626,90,882,69687,103455,18615,32174,70895,93656,164551,45607,73584,60177,69163,48306,83256,8466,388559,119222,507781,309078,157076,93606,1533,5218,477,318,880,2119,22286,82195,444,99720,3329,5755,Haryana,Panchkula,30.700897142857134,76.97173238095236,87.0,72.0,77.0,67.0
70,HARYANA,Ambala,1128350,598703,529647,818025,461288,356737,296246,756211,52871,57293,15753,246222,955096,22143,3705,138202,381,4845,110,3868,121622,199681,12899,32767,175365,139891,315256,89558,170110,161844,163544,97980,91472,18727,793235,222031,1015266,617859,308126,201685,680,32215,51,32,863,1052,27750,175374,106,173860,14874,4947,Haryana,Ambala,30.3503672316384,76.94970310734456,88.0,72.0,77.0,67.0
72,HARYANA,Kurukshetra,964655,510976,453679,646893,370828,276065,215128,627875,68908,85890,6726,175256,805175,15970,1943,140395,214,375,106,477,90150,171908,7356,21951,203553,88268,291821,94530,145392,118107,120790,81964,71007,10999,642789,266638,909427,552034,250830,160216,1575,25561,42,17,934,1052,28663,144159,59,152471,23107,6569,Haryana,Kurukshetra,30.05652659846548,76.78774680306903,89.0,67.0,73.0,61.0
73,HARYANA,Kaithal,1074304,571003,503301,646529,385782,260747,247513,700405,128016,85651,9450,150782,974520,8232,1769,87558,265,351,70,1539,62668,187349,3724,15301,231091,75696,306787,119345,158239,124682,117753,82297,51043,9111,662470,369869,1032339,630194,265813,176320,1977,77712,36,354,2845,4132,60650,114419,897,116339,45149,25152,Haryana,Kaithal,29.96068539094649,76.37698930041155,88.0,60.0,68.0,52.0
74,HARYANA,Karnal,1505324,797712,707612,978013,564516,413497,339604,989262,112288,133723,15311,254740,1341002,31650,2049,126207,532,1516,49,2319,143133,267223,11163,29253,292682,135920,428602,155839,231354,188040,183590,124790,101387,19186,1004186,429220,1433406,884972,380409,234684,5259,51117,46,84,3100,3507,45033,225116,277,229500,29657,14402,Haryana,Karnal,29.703200647249204,76.87488025889972,89.0,65.0,71.0,58.0
75,HARYANA,Panipat,1205437,646857,558580,786599,464136,322463,206213,793119,72120,62358,15824,262016,1083936,86622,2261,25064,289,4647,99,2519,121846,209965,10024,26719,173502,153804,327306,118873,170565,143466,141473,91756,75774,10977,752884,296212,1049096,739075,298764,167244,354,69876,33,208,2672,3380,53544,148894,467,145881,41486,17950,Haryana,Panipat,29.34352134146342,76.92895914634147,86.0,65.0,72.0,58.0
77,HARYANA,Jind,1334152,713006,621146,832758,502049,330709,282351,810730,230387,102071,9114,181850,1276669,23016,889,29103,172,2594,56,1653,78386,222462,5263,23750,278335,89665,368000,136892,185626,151682,154773,107994,64599,14277,815843,419624,1235467,784085,335704,213478,885,89084,39,542,4981,6732,73935,119784,1170,129177,43302,50863,Haryana,Jind,29.45149821958457,76.29598575667653,87.0,62.0,70.0,53.0
78,HARYANA,Fatehabad,942011,495360,446651,557578,327471,230107,284357,572928,132250,97997,6558,132278,779243,8360,996,150969,171,1172,530,570,51693,153301,3210,13142,203020,55360,258380,103541,136663,99948,93526,61476,37741,9504,542399,344534,886933,555745,237009,147469,1788,41039,28,1970,1355,5126,39877,122912,1773,128708,25578,13305,Haryana,Fatehabad,29.57298318584072,75.54608716814157,90.0,59.0,66.0,52.0
79,HARYANA,Sirsa,1295189,682582,612607,782897,456968,325929,387381,793186,164297,147042,11952,178712,940255,9524,2186,338962,370,2256,624,1012,70538,215527,6287,22706,245476,93316,338792,141766,201349,153263,134559,83373,61620,16698,792628,412353,1204981,750228,334344,208185,2432,26345,61,3363,1968,7298,33381,196564,1906,204475,19947,10272,Haryana,Sirsa,29.63583446327684,74.90970480225988,90.0,60.0,67.0,53.0
80,HARYANA,Hisar,1743931,931562,812369,1114311,670200,444111,408785,1052310,261120,144213,16097,270191,1701061,21650,1945,12270,334,3620,33,3018,110495,285004,10132,33400,302013,154113,456126,197303,230074,194595,202792,144626,105346,19031,1093767,505251,1599018,1017830,456536,265109,4456,78490,53,4199,2895,11939,76543,194669,4792,218535,11612,53834,Haryana,Hisar,29.23628731117825,75.84324682779452,87.0,64.0,72.0,55.0
81,HARYANA,Bhiwani,1634445,866672,767773,1069871,643158,426713,341162,1011439,288543,103788,14855,215820,1611031,15515,873,2401,254,1016,26,3329,88938,266244,5292,25236,357047,99235,456282,186145,223049,198307,218631,148995,104875,13786,1093788,459364,1553152,964960,405760,261428,2297,68692,67,347,5860,9831,84400,164410,3557,203509,36262,60002,Haryana,Bhiwani,28.728868064516128,76.02110225806452,89.0,65.0,74.0,56.0
82,HARYANA,Rohtak,1061204,568479,492725,747582,436025,311557,216889,715237,95732,36568,8521,205146,1043887,8185,732,3916,200,3491,24,769,94633,193120,8482,27225,175203,131739,306942,117097,150903,140782,168499,109596,100346,21134,808357,248795,1057152,605741,269354,185685,424,35577,34,1086,2431,3991,37780,136781,440,154010,10545,28372,Haryana,Rohtak,28.892517647058817,76.53123235294117,87.0,70.0,77.0,63.0
83,HARYANA,Jhajjar,958405,514667,443738,676091,399480,276611,170448,631871,112389,44845,9254,160046,945693,8247,734,1042,105,645,22,1917,70149,168558,5034,19241,211816,78328,290144,90737,109829,115794,145258,97457,58826,9387,627288,201028,828316,549975,245095,162356,979,36644,41,173,4715,6599,36547,114081,1670,133448,14363,32772,Haryana,Jhajjar,28.59651868131869,76.61137142857145,86.0,71.0,78.0,62.0
84,HARYANA,Mahendragarh,922088,486665,435423,630255,380440,249815,156314,583504,149146,38320,7639,143479,913251,5660,301,1737,75,644,15,405,45359,135455,2624,13908,223726,44216,267942,94273,135849,126291,132765,94245,60296,10353,654072,245602,899674,530000,229392,161258,1438,40151,51,60,7081,12890,55460,80378,5698,108389,37955,32687,Haryana,Mahendragarh,28.1352161458333,76.14018072916659,89.0,68.0,78.0,57.0
85,HARYANA,Rewari,900332,474335,425997,636947,375453,261494,182606,562605,102698,28215,9782,197032,889133,5713,701,1804,202,1525,12,1242,62667,152651,5121,18092,199449,69305,268754,81280,120860,122617,139646,95807,65143,9820,635173,206827,842000,518747,230704,150557,324,37962,34,147,3439,5393,35782,114709,1773,122608,24732,18637,Haryana,Rewari,28.19164714828897,76.55956007604564,90.0,71.0,79.0,61.0
86,HARYANA,Gurgaon,1514432,816690,697742,1111116,638666,472450,197937,969716,56046,27097,18228,443345,1408801,70842,9725,15097,944,7451,254,1318,238359,305751,67087,102343,141703,381988,523691,126920,177453,175370,219200,150120,233402,41366,1123831,263720,1387551,875531,428101,210307,493,93746,71,264,4773,6361,44026,257287,1253,219377,81189,19329,Haryana,Gurgaon,28.043894789579163,77.01935130260523,85.0,73.0,78.0,68.0
88,HARYANA,Faridabad,1809733,966110,843623,1272739,734940,537799,223799,1230504,27705,29288,32286,489950,1588407,161680,9743,34572,640,4883,249,9559,258422,333171,43437,82673,87700,382981,470681,137902,220384,198551,282666,178846,259933,27864,1306146,346567,1652713,1095602,481318,231029,1784,114361,117,187,20596,26539,65216,253688,5639,211123,46224,34162,Haryana,Faridabad,28.14873109756098,77.32718536585368,87.0,70.0,76.0,64.0
93,NCT OF DELHI,East,1709346,907500,801846,1352998,748382,604616,281422,1129654,1156,3094,19541,555901,1410852,178807,15792,53027,2643,46927,366,932,327253,352758,80037,127465,1086,461132,462218,86484,219061,260094,267825,235187,246988,18644,1334283,169693,1503976,948963,497157,262124,1102,17468,42,7,1665,2811,28364,321816,1097,333999,12321,4205,Sikkim,East,27.29600352941175,88.74908392156858,88.0,79.0,82.0,75.0
99,RAJASTHAN,Ganganagar,1969168,1043340,925828,1193343,710908,482435,720412,1056496,268297,230438,13790,400147,1437144,50688,2077,474853,938,1988,164,1316,88543,283142,6295,24901,397697,164897,562594,237042,314107,238397,163098,105734,104071,19396,1181845,710223,1892068,1167889,502211,283484,15584,29267,56,28054,14937,59879,101909,236712,16832,274355,4556,35256,Rajasthan,Ganganagar,29.256785412667963,73.56192303262948,89.0,61.0,68.0,52.0
100,RAJASTHAN,Hanumangarh,1774692,931184,843508,1034136,624281,409855,494189,939432,370452,166833,13839,284136,1433067,118673,1542,216997,241,1935,138,2099,55515,243163,3360,16217,389059,108694,497753,239601,273441,219194,153628,104087,84185,14416,1088552,723454,1812006,1058044,453114,242361,21173,27588,57,13223,15085,50036,100071,192913,21671,246593,9019,35887,Rajasthan,Hanumangarh,29.1813351791531,74.74632573289902,91.0,58.0,67.0,49.0
101,RAJASTHAN,Bikaner,2363937,1240801,1123136,1278801,782399,496402,493646,1377729,499223,103833,26244,356908,2073356,235741,1901,20072,285,30850,79,1653,108812,220793,7607,29531,335754,196179,531933,410155,333211,254335,143669,80296,101714,18577,1341957,1015331,2357288,1543867,517271,288165,14634,42877,133,32076,32053,95243,99339,194668,30981,224200,37355,81963,Rajasthan,Bikaner,28.12489068322981,73.26943322981371,91.0,54.0,63.0,44.0
102,RAJASTHAN,Churu,2039547,1051446,988101,1149269,696729,452540,451721,1136718,572644,87983,16594,225608,1777879,249736,958,402,188,7104,127,3153,74197,231696,2577,15259,344897,148996,493893,336671,302022,237220,161520,100677,77282,13320,1228712,910226,2138938,1293193,458725,272176,15453,25206,74,278,19862,34650,131525,153018,14436,268551,22958,62808,Rajasthan,Churu,28.29330375536484,74.65846427038629,94.0,56.0,66.0,46.0
103,RAJASTHAN,Jhunjhunun,2137045,1095896,1041149,1370360,815834,554526,360709,1242396,521692,68878,13472,290607,1905682,228178,1004,275,56,548,85,1217,131987,297559,4828,24178,500452,150357,650809,296093,305626,301866,256621,192240,158936,25286,1536668,712584,2249252,1298780,494124,330126,14015,104352,149,110,13359,23575,142622,191632,9957,231401,87590,49410,Rajasthan,Jhunjhunun,28.13517401247401,75.52840893970894,95.0,64.0,74.0,53.0
104,RAJASTHAN,Alwar,3674179,1939026,1735153,2182476,1359829,822647,653036,1965637,898891,216772,34562,558317,3039279,547335,2696,64532,4384,13221,348,2384,123478,485723,9750,45770,782294,212967,995261,492781,492981,468628,324050,230415,222622,31390,2262867,1384905,3647772,2346721,836000,490137,1321,376001,138,169,11388,19551,259700,216309,7856,189088,196407,152904,Rajasthan,Alwar,27.55271738035265,76.65359630562563,89.0,59.0,70.0,47.0
105,RAJASTHAN,Bharatpur,2548462,1355726,1192736,1480869,943910,536959,557305,1477308,500994,238894,25068,306198,2143046,371286,1576,23456,899,5758,18,2423,61113,288723,4179,26106,479437,129697,609134,363676,330336,314953,211938,147520,132571,23311,1524305,1104824,2629129,1659515,546362,329127,13458,202167,91,92,12108,15152,146614,103790,2861,101103,47246,173203,Rajasthan,Bharatpur,27.32411858037578,77.21752077244258,88.0,58.0,70.0,45.0
106,RAJASTHAN,Dhaulpur,1206516,653647,552869,683098,435721,247377,245695,683304,229936,74342,12721,206213,1127520,72258,688,1356,92,2739,21,1842,24561,96086,1330,9504,214670,58626,273296,207566,172914,132964,77360,45590,37856,8194,682444,552106,1234550,815651,248416,141365,1084,137091,91,197,890,2614,108776,42599,1436,35615,7093,50809,Rajasthan,Dhaulpur,26.72397054945053,77.74476219780222,85.0,57.0,67.0,45.0
107,RAJASTHAN,Karauli,1458248,783639,674609,805849,531904,273945,354465,829522,335302,115367,9521,168536,1370977,81553,602,297,70,3424,413,912,28296,132079,1059,13045,305047,59308,364355,220644,193938,170399,104208,69443,67639,14402,840673,668926,1509599,947173,310688,192042,8345,146833,111,108,4322,12015,113262,50675,7474,54328,55000,98722,Rajasthan,Karauli,26.51901555555556,76.96081818181815,86.0,55.0,68.0,41.0
108,RAJASTHAN,Sawai Madhopur,1335551,704031,631520,741748,486184,255564,278789,757483,313358,88804,12070,163836,1165505,155681,945,812,177,9991,42,2398,40116,140947,1887,14310,282057,71264,353321,205450,172925,151108,87349,57625,70870,14384,759711,586492,1346203,841697,309237,183234,1383,147768,115,229,2710,5515,111924,56544,2461,54946,35191,85519,Rajasthan,Sawai Madhopur,26.251081180223288,76.4219283891548,90.0,56.0,69.0,40.0
109,RAJASTHAN,Dausa,1634409,857787,776622,938051,596935,341116,354337,949914,390960,76277,17185,200073,1582335,45488,439,296,94,3737,115,1905,35600,195277,1719,14539,361084,59610,420694,229035,235474,208537,135234,92559,90833,13764,1005436,681980,1687416,1047136,358718,210117,18438,199528,17,69,4314,10195,151190,60038,5795,54241,91306,79601,Rajasthan,Dausa,26.91234817629181,76.57342097264443,91.0,57.0,70.0,44.0
110,RAJASTHAN,Jaipur,6626178,3468507,3157671,4300965,2554793,1746172,1003302,4161285,744374,131523,91011,1497985,5819980,687452,12708,18782,1020,81079,257,4900,570997,990085,76565,182350,754841,977838,1732679,819004,875940,823570,659389,455527,703673,96562,4433665,2046038,6479703,4091148,1646480,884057,4493,369476,506,1608,31144,76809,347145,636260,43551,661375,199415,162499,Rajasthan,Jaipur,27.033459290187885,75.77117286012533,91.0,65.0,74.0,55.0
111,RAJASTHAN,Sikar,2677333,1374990,1302343,1652117,995275,656842,418806,1670829,501311,87889,22776,394528,2342076,327583,1122,356,177,4050,15,1954,131342,339457,5647,28382,527560,178274,705834,369959,438872,367412,282595,200430,181282,19321,1859871,967497,2827368,1672813,605002,381226,18292,148166,81,146,14030,24043,170669,212651,9786,248633,101296,62393,Rajasthan,Sikar,27.64644058641976,75.29317422839503,95.0,62.0,72.0,50.0
112,RAJASTHAN,Nagaur,3307743,1696325,1611418,1758624,1102750,655874,699911,1881861,734614,263401,29647,398220,2833443,454487,1912,366,163,12940,276,4156,97267,347344,4449,35328,675712,166489,842201,513871,486057,388822,242053,147701,117444,14853,1910801,1533137,3443938,2088323,754143,463469,1808,65609,644,346,61679,221537,259545,166213,158868,237329,44579,158183,Rajasthan,Nagaur,27.07862016048146,74.14215667001012,95.0,53.0,65.0,41.0
113,RAJASTHAN,Jodhpur,3687165,1923928,1763237,2031532,1265753,765779,608024,2197424,592370,242017,42412,612942,3224399,411558,6035,4123,514,36697,80,3759,197135,408808,19335,54808,584215,307442,891657,497762,512035,405132,259304,154789,177199,30720,2036941,1591957,3628898,2359786,836322,489280,1777,108366,264,1945,69929,193611,230034,245426,121473,305339,85467,151118,Rajasthan,Jodhpur,26.678460838536967,73.00450847457628,92.0,55.0,66.0,43.0
114,RAJASTHAN,Jaisalmer,669919,361708,308211,308653,210415,98238,99134,381016,132466,43872,6835,105730,497045,168129,874,1723,98,1521,34,495,12431,43141,754,7416,159117,30830,189947,109484,71132,41264,20142,12759,10604,1720,267105,397649,664754,448969,140294,79977,679,22039,455,5542,9827,55031,59269,15653,39207,27456,15114,38477,Rajasthan,Jaisalmer,26.86900838548185,71.18371877346682,85.0,46.0,58.0,32.0
115,RAJASTHAN,Barmer,2603751,1369022,1234729,1188322,783461,404861,436414,1401269,754260,132696,30565,284961,2244882,321192,1157,450,157,34010,34,1869,39580,126494,2766,37730,542825,55980,598805,406804,352636,219932,101291,52272,39533,7328,1179796,1501858,2681654,1731122,527629,326476,18524,66514,892,614,114728,220990,213099,56954,104756,95785,54551,177723,Rajasthan,Barmer,25.77070908045978,71.50297126436782,90.0,46.0,57.0,33.0
116,RAJASTHAN,Jalor,1828730,936634,892096,829582,543923,285659,357196,932086,493355,158013,21867,223409,1732852,78990,730,231,144,14640,82,1061,39745,161845,1585,12794,419216,48202,467418,270997,277152,181691,75304,32366,25210,7850,870570,1033534,1904104,1176496,390598,249379,12257,65366,103,2654,44978,82824,120431,116788,35089,136516,58639,92297,Rajasthan,Jalor,25.07578093797277,72.18647261724662,95.0,45.0,58.0,32.0
117,RAJASTHAN,Sirohi,1036346,534231,502115,476806,309900,166906,201863,616517,124080,97823,9443,188483,996562,30479,1284,572,114,6829,56,450,47182,134089,2146,10297,238535,69639,308174,117971,147381,110385,58213,30724,27076,5251,497001,577092,1074093,649290,244401,142251,404,80219,77,307,4072,8699,76134,75510,4243,81766,12864,50616,Rajasthan,Sirohi,24.7976905263158,72.75309131578943,94.0,46.0,58.0,33.0
118,RAJASTHAN,Pali,2037573,1025422,1012151,1085693,667381,418312,398096,1195246,243491,237280,26119,335437,1870543,143476,1345,1540,141,18974,52,1502,94821,326793,4043,19270,512909,139808,652717,293818,359329,271312,144581,71472,67021,9403,1216936,983050,2199986,1207983,467436,343384,18770,96554,149,465,18509,73144,172802,150135,54021,197827,17013,106055,Rajasthan,Pali,25.80490393541874,73.55285640766907,99.0,53.0,65.0,41.0
119,RAJASTHAN,Ajmer,2583052,1324085,1258967,1526673,926268,600405,478027,1529330,298856,145523,35602,573741,2201663,314159,10605,6799,417,45614,184,3611,171799,393498,13499,41732,409335,274919,684254,379043,394576,313680,200191,130608,172683,28138,1618919,1034334,2653253,1561077,629951,388040,3984,149028,126,324,14662,29029,150655,194127,13917,247504,12999,139149,Rajasthan,Ajmer,26.199300378787903,74.6990419191919,95.0,59.0,70.0,48.0
120,RAJASTHAN,Tonk,1421326,728136,693190,749659,478329,271330,287903,772165,326083,113426,16004,193648,1243527,153146,754,378,122,22458,30,911,32359,158264,1908,12482,298911,81755,380666,237191,190750,154825,91853,64431,67155,9919,816124,661902,1478026,880194,334006,205593,1533,169669,43,353,1188,5207,123244,54174,3623,58786,10771,90422,Rajasthan,Tonk,26.153935071707927,75.79192216427637,95.0,53.0,66.0,39.0
121,RAJASTHAN,Bundi,1110906,577160,533746,585044,371705,213339,210788,584815,250453,111388,11172,153078,1017688,66609,682,11059,144,13455,24,1245,33406,136969,1392,7705,239836,63452,303288,153500,159218,121104,63248,41227,41052,6460,585809,553622,1139431,686771,267648,155958,529,152557,19,436,3012,5297,107798,60819,1830,51021,34631,51454,Rajasthan,Bundi,25.48580716049379,75.79984074074079,92.0,53.0,64.0,40.0
122,RAJASTHAN,Bhilwara,2408523,1220736,1187787,1256126,777582,478544,407947,1260358,555168,163052,30149,399796,2224839,142427,1978,1468,183,35149,60,2419,93768,373644,6207,24014,530015,145865,675880,398993,338296,258990,141250,92785,106667,10928,1347909,1180456,2528365,1439454,589476,365023,14570,218844,104,356,7027,15906,202416,134845,8419,183367,37066,156336,Rajasthan,Bhilwara,25.45119767759564,74.63947595628417,97.0,52.0,64.0,40.0
123,RAJASTHAN,Rajsamand,1156597,581339,575258,619139,383334,235805,148168,605766,207582,106587,13505,223157,1105676,33677,759,260,100,14966,68,1091,36073,193276,1989,9222,304622,61054,365676,190090,190388,140839,72969,41063,34286,4732,674367,544517,1218884,687165,275099,193668,665,105782,112,116,2042,6014,104150,70203,3744,86777,8412,71135,Rajasthan,Rajsamand,25.24894767441859,73.96570215946844,99.0,54.0,66.0,41.0
124,RAJASTHAN,Dungarpur,1388552,696532,692020,681591,415820,265771,52267,747037,227849,184330,12514,216822,1340065,28662,830,240,226,16141,853,1535,26351,141275,1477,11742,322816,31547,354363,238847,175059,114245,60656,42887,39312,4834,675840,764563,1440403,868458,317700,191917,10477,185132,303,2333,942,4328,109767,52248,750,44442,21374,121541,Rajasthan,Dungarpur,23.75104807692308,73.84765641025645,99.0,49.0,60.0,38.0
125,RAJASTHAN,Banswara,1797485,907754,889731,829343,513854,315489,80091,880911,546569,199370,19818,150817,1701234,48834,22250,427,138,22613,109,1880,34189,120603,2324,15062,390437,39407,429844,240067,190259,137780,75011,50438,47094,8145,748794,1040914,1789708,1153029,406214,216554,21688,260885,1523,4482,1279,8695,147013,56756,1411,38137,13454,162290,Rajasthan,Banswara,23.453642032967014,74.44246868131869,98.0,46.0,57.0,35.0
126,RAJASTHAN,Chittaurgarh,1544338,783171,761167,821825,514851,306974,250224,741583,453201,123469,15435,210650,1413163,97855,1274,1515,252,25843,136,4300,59190,268172,4941,16560,366780,88873,455653,245603,225700,170455,90889,58129,67155,10768,868699,715545,1584244,880043,398303,258997,6995,170528,59,431,3815,6206,150191,96673,1901,136583,54549,79585,Rajasthan,Chittaurgarh,24.631623761665463,74.80010997846382,97.0,53.0,66.0,40.0
127,RAJASTHAN,Kota,1951014,1021161,929853,1298345,765396,532949,405408,1202203,140262,134992,25125,448432,1661307,243993,5665,11058,280,25742,286,2683,165563,339899,12843,36297,203454,311735,515189,286676,294591,250092,172538,118710,167778,27485,1317870,588142,1906012,1177474,495896,275396,2248,144578,104,524,2528,4043,113176,220850,887,225351,32662,45799,Rajasthan,Kota,25.175718080000014,76.18618928000001,91.0,67.0,75.0,57.0
128,RAJASTHAN,Baran,1222755,633945,588810,693307,432607,260700,221184,670172,216538,185037,15258,135750,1133349,79984,1432,3066,84,2795,48,1997,32685,161310,1363,9491,249184,69804,318988,203489,194024,144190,76209,46847,49939,8057,722755,545842,1268597,762204,286344,173100,1107,158878,43,463,1968,3494,115070,60902,1020,57191,51719,64349,Rajasthan,Baran,24.98023243243244,76.86210651828291,93.0,57.0,68.0,44.0
129,RAJASTHAN,Jhalawar,1411129,725143,685986,739792,466815,272977,243582,725179,328714,209772,11199,136265,1299751,96164,842,819,46,12488,42,977,38909,220428,1750,9403,298624,63763,362387,226614,203488,143108,73388,46267,47985,6972,747822,696680,1444502,850546,346110,213674,799,131409,131,350,1347,4283,143197,49703,2455,75401,19447,89308,Rajasthan,Jhalawar,24.24725541474657,76.11242891705065,95.0,52.0,64.0,40.0
130,RAJASTHAN,Udaipur,3068420,1566801,1501619,1582629,973444,609185,188525,1702637,539106,302968,33535,490174,2869976,104307,7406,4278,209,78647,373,3224,128320,357846,14211,48517,665449,182769,848218,442946,386075,277392,164290,102085,142672,20010,1535470,1528671,3064141,1876436,739287,451034,1663,303445,1731,5782,4926,16392,231063,161112,3953,150942,45044,225746,Rajasthan,Udaipur,24.44076752136749,73.84029839743584,96.0,52.0,62.0,41.0
131,RAJASTHAN,Pratapgarh,867848,437744,430104,401515,250122,151393,60429,386554,306419,96815,5516,72544,827293,25597,358,72,32,14077,27,392,17984,71612,716,5961,209813,24269,234082,142397,111276,70969,35206,21854,19109,2137,402948,488621,891569,545987,204801,115608,1452,104251,712,1456,664,3756,95295,21922,924,23928,13099,60829,Uttar Pradesh,Pratapgarh,25.864842731707316,81.93530048780492,98.0,46.0,57.0,35.0
132,UTTAR PRADESH,Saharanpur,3466382,1834106,1632276,2077108,1220114,856994,764450,2429038,221567,273050,34032,508695,1966892,1454052,6523,18627,1937,10208,135,8008,149035,404499,9699,38816,605082,284156,889238,474060,600668,431491,256510,163463,154153,10083,2090428,1279517,3369945,2228689,769736,433862,34095,388400,32,726,6262,8812,131048,408736,1792,190539,9937,49192,Uttar Pradesh,Saharanpur,30.03381165217392,77.59905147826095,89.0,60.0,67.0,53.0
133,UTTAR PRADESH,Muzaffarnagar,4143512,2193434,1950078,2417339,1448528,968811,561250,2851868,336049,323641,45952,586002,2382914,1711453,6495,18601,1516,16345,60,6128,147785,368153,10077,56149,673746,296104,969850,826387,780470,531913,281747,148770,98691,5608,2673586,1431537,4105123,2671757,911621,544283,15851,465696,134,202,8410,9516,150102,478281,770,203329,21322,53004,Uttar Pradesh,Muzaffarnagar,29.470507977736563,77.64017847866423,89.0,58.0,66.0,50.0
134,UTTAR PRADESH,Bijnor,3682713,1921215,1761498,2135393,1241471,893922,787444,2594677,232158,311489,52549,491840,2032081,1585210,6184,50624,1736,2134,41,4703,128042,268353,7303,37341,683875,224648,908523,498971,827447,549594,255028,159528,148185,14658,2453411,1308683,3762094,2404576,786305,450186,41646,392856,86,219,5257,6513,141480,442905,951,226734,9808,44423,Uttar Pradesh,Bijnor,29.313974259681096,78.45098815489754,92.0,58.0,65.0,51.0
135,UTTAR PRADESH,Moradabad,4772006,2503186,2268820,2263848,1357435,906413,731406,3354195,368638,338384,88733,622056,2488265,2248392,13157,7555,1260,2426,382,10569,179473,281758,11690,61846,692398,355518,1047916,635957,725118,492338,296210,186311,186489,23372,2545795,2097292,4643087,3168270,988486,525574,89676,509146,77,162,6848,7297,99762,650922,210,266687,10544,34055,Uttar Pradesh,Moradabad,28.851770406189537,78.73580193423597,91.0,47.0,54.0,40.0
136,UTTAR PRADESH,Rampur,2335819,1223889,1111930,1043666,630408,413258,307936,1598558,214187,230238,54238,238598,1073890,1181337,9201,65316,384,1307,63,4321,62281,131112,3847,25960,396775,143217,539992,278477,374898,171242,85117,51703,43839,3169,1008445,1235413,2243858,1576123,491164,258913,9619,242661,64,159,2442,2885,40024,341262,220,145801,3358,12155,Uttar Pradesh,Rampur,28.83244727272725,79.10977333333337,91.0,45.0,52.0,37.0
137,UTTAR PRADESH,Jyotiba Phule Nagar,1840221,963449,876772,983110,600541,382569,318001,1241132,217672,131877,31600,217940,1075440,750368,5952,5295,189,517,21,2439,55064,89329,2825,18303,335888,115486,451374,251669,352835,230640,161282,164763,69522,3021,1233732,520215,1753947,1227283,391275,215849,5814,210241,19,55,4286,4580,45254,250627,220,97536,4824,16955,Uttar Pradesh,Jyotiba Phule Nagar,28.870498984771597,78.39009365482241,91.0,53.0,62.0,44.0
138,UTTAR PRADESH,Meerut,3443689,1825743,1617946,2141488,1254520,886968,624149,2353150,196068,153995,63096,677380,2183255,1185643,10582,24912,1855,18544,236,18662,236071,425624,23717,69473,381520,422303,803823,412280,495861,469403,359944,254337,275076,36096,2302997,990312,3293309,2165117,780475,451827,46270,311371,62,75,6923,7440,77119,470187,380,248730,32332,21439,Uttar Pradesh,Meerut,29.02957625698323,77.80611005586593,89.0,62.0,69.0,55.0
139,UTTAR PRADESH,Baghpat,1303048,700070,602978,797970,489858,308112,149060,886353,124718,74500,20347,197130,917474,364583,1840,483,161,16139,25,2343,44732,119121,2989,19999,246055,69991,316046,139646,272939,215070,132197,79475,44164,3730,887221,376700,1263921,817140,283276,194548,8084,150465,20,68,4304,4456,82659,96715,64,51339,15575,27716,Uttar Pradesh,Baghpat,29.045793499999988,77.30266300000001,86.0,61.0,70.0,51.0
140,UTTAR PRADESH,Ghaziabad,4681645,2488834,2192811,3123264,1811397,1311867,773463,3161107,158868,123680,83672,1154318,3414427,1186776,19026,23001,3487,16412,265,18251,501592,695130,78116,179552,355407,836316,1191723,534606,858286,797473,597661,475439,255949,26399,3545813,885070,4430883,2891069,1139871,559963,90742,461559,263,446,13148,16550,112973,679606,2693,347916,112059,37264,Uttar Pradesh,Ghaziabad,28.74997308584685,77.67441879350343,88.0,67.0,73.0,60.0
141,UTTAR PRADESH,Gautam Buddha Nagar,1648115,890214,757901,1122947,666065,456882,216105,1079006,72668,48845,35400,412196,1394025,215500,7366,9261,895,4518,91,16459,193902,257586,53181,87188,170835,338935,509770,201277,330623,283031,218587,194796,101645,5058,1335017,342284,1677301,1015648,402967,188862,40638,137165,69,97,5630,6491,37461,266838,695,171326,40945,11979,Uttar Pradesh,Gautam Buddha Nagar,28.393311038961038,77.52462467532465,85.0,68.0,75.0,60.0
142,UTTAR PRADESH,Bulandshahr,3499171,1845260,1653911,2031656,1253314,778342,725600,2325911,332475,241137,65937,533711,2707195,777407,4088,2765,669,1572,86,5389,124641,223922,7865,38225,658449,221628,880077,443641,540754,475146,338138,217882,151182,17796,2184539,1185318,3369857,2246254,753949,472808,26160,421842,29,116,6320,6989,100733,450820,524,152581,10659,31123,Uttar Pradesh,Bulandshahr,28.34875862068968,78.01082758620684,90.0,58.0,68.0,47.0
143,UTTAR PRADESH,Aligarh,3673889,1951996,1721893,2092567,1283380,809187,755254,2499528,281501,267197,78566,547097,2904140,729283,7635,5875,2582,2805,91,21478,153283,268120,13634,58336,582117,275942,858059,456870,491605,443958,334738,216997,172585,20498,2137251,1352181,3489432,2378289,787408,472667,35525,426380,63,139,6454,7223,170338,374047,567,168309,49598,60227,Uttar Pradesh,Aligarh,27.93748576850093,78.00146831119557,88.0,57.0,66.0,47.0
145,UTTAR PRADESH,Mathura,2547184,1367125,1180059,1507746,943346,564400,506580,1706245,235886,179248,44453,381352,2310776,216933,3179,2872,883,2056,126,10359,107867,281239,8726,37596,407488,177802,585290,303291,420976,344961,233264,155937,103102,10262,1571793,691359,2263152,1600686,535738,327854,82906,246837,48,131,7650,8707,110040,193876,878,119348,44350,106867,Uttar Pradesh,Mathura,27.59390432801821,77.62153416856502,86.0,59.0,69.0,48.0
146,UTTAR PRADESH,Agra,4418797,2364953,2053844,2680510,1614594,1065916,991325,3028953,285471,234455,94184,775734,3922718,411313,10076,12057,4049,21508,384,36692,251013,536402,27183,82012,496971,406852,903823,600839,904836,647340,450571,317618,199395,20781,3141380,963202,4104582,2871903,991255,547873,7766,417507,96,477,8058,10047,257562,307051,1416,224180,96515,107997,Uttar Pradesh,Agra,26.99512974910393,78.05278291517321,87.0,61.0,68.0,52.0
147,UTTAR PRADESH,Firozabad,2498156,1332046,1166110,1521806,912314,609492,473890,1736635,184595,150221,59942,366763,2140745,314812,3370,1804,3395,19077,61,14892,100919,196080,5834,31797,349747,185621,535368,324525,416295,368905,277163,166249,108627,11313,1673077,672115,2345192,1621154,543730,312689,20583,299770,57,191,4660,5570,197978,137810,662,102602,62870,76359,Uttar Pradesh,Firozabad,27.20963993055552,78.42660624999998,88.0,61.0,68.0,52.0
148,UTTAR PRADESH,Mainpuri,1868529,993377,875152,1203885,712110,491775,368206,1307689,270888,137174,24784,127994,1746649,100723,1729,475,8814,4161,38,5940,43074,79022,2642,24451,338475,72783,411258,234774,353287,319158,230731,144516,111696,12281,1406443,519493,1925936,1193660,402321,265638,6910,242981,31,70,1032,1221,140987,128576,88,63151,4252,41621,Uttar Pradesh,Mainpuri,27.17386862302482,79.03501851015807,88.0,64.0,72.0,56.0
150,UTTAR PRADESH,Bareilly,4448359,2357665,2090694,2191759,1342697,849062,557150,3046388,365985,326376,131699,577911,2830768,1536534,14822,28187,4371,931,339,32407,210687,272830,15164,56575,631613,362798,994411,717585,641251,442110,272840,172554,146446,16806,2409592,1744527,4154119,2893965,952233,514141,88020,414326,82,198,5547,6415,76715,646459,588,323722,7796,23048,Uttar Pradesh,Bareilly,28.51101940789474,79.43187072368416,89.0,49.0,57.0,41.0
151,UTTAR PRADESH,Pilibhit,2031007,1072002,959005,1061095,654290,406805,333558,1412402,216476,224192,22782,155155,1449007,489686,3510,84787,360,138,45,3474,47723,83006,2870,18097,371752,89638,461390,294135,281158,240057,117838,77602,66129,9713,1086632,977839,2064471,1320476,449673,256276,4582,259939,46,163,1858,2186,50892,298535,119,98099,1041,12043,Uttar Pradesh,Pilibhit,28.52024175035868,79.90103974175037,89.0,52.0,61.0,42.0
152,UTTAR PRADESH,Shahjahanpur,3006538,1606403,1400135,1490930,915142,575788,532673,2114324,344973,275192,31141,240908,2412595,527581,4630,51090,2312,301,84,7945,91958,115163,3889,27533,520289,134714,655003,451571,476064,315873,158430,96308,87355,8885,1594486,1324615,2919101,1961237,652237,368743,24321,362204,86,273,4061,4627,115436,368601,207,148086,6034,34164,Uttar Pradesh,Shahjahanpur,27.991389350649328,79.8302275324675,87.0,50.0,57.0,41.0
154,UTTAR PRADESH,Sitapur,4483992,2375264,2108728,2283733,1397702,886031,1446427,3061390,571097,473554,70971,306980,3555450,893725,6579,11611,2663,1410,79,12475,74072,102040,3874,34609,827583,111319,938902,714304,656401,482220,221898,136383,127750,8775,2347731,2141696,4489427,2862383,1000987,588318,32304,520109,215,535,2617,3967,321069,350723,600,230288,5546,122069,Uttar Pradesh,Sitapur,27.501995963091108,80.85288881199547,89.0,51.0,59.0,42.0
155,UTTAR PRADESH,Hardoi,4092845,2191442,1901403,2221601,1374587,847014,1274505,2773899,596813,406830,59649,255654,3508131,556219,5822,5688,6671,446,98,9770,60689,95508,3845,32065,786613,121064,907677,741817,906861,510507,247265,138583,103523,9048,2657604,1481604,4139208,2598364,905306,559988,29187,536236,52,231,2716,3208,258126,361033,209,137163,2003,89562,Uttar Pradesh,Hardoi,27.337409090909137,80.26411767676768,87.0,54.0,63.0,45.0
156,UTTAR PRADESH,Unnao,3108367,1630087,1478280,1773584,1053063,720521,948588,1983623,450123,332663,49243,292715,2732016,363453,3574,1204,920,240,31,6929,70484,99466,3476,28719,596317,121039,717356,501457,512965,415378,240024,136688,101934,7173,1915619,1130103,3045722,1893706,706851,453462,54348,459680,99,263,904,1654,275402,210791,388,68748,4404,81298,Uttar Pradesh,Unnao,26.63163990895297,80.636773292868,91.0,57.0,65.0,49.0
157,UTTAR PRADESH,Lucknow,4589838,2394476,2195362,3127260,1742440,1384820,948294,3047032,175578,203029,99863,1064336,3537787,985070,20493,23883,3877,4975,504,13249,469747,582769,68506,152257,344155,717566,1061721,489898,554301,552171,428121,378742,639260,52132,3094625,1146880,4241505,2678289,1161686,685258,64605,380839,456,491,4561,7110,243172,503471,1602,427563,60932,75948,Uttar Pradesh,Lucknow,26.838233589251463,80.89706026871404,92.0,68.0,73.0,63.0
158,UTTAR PRADESH,Rae Bareli,3405559,1752542,1653017,1965843,1165965,799878,1030367,2200849,316891,507882,60774,319163,2975998,413243,3634,2424,722,397,602,8539,65080,247856,5184,34788,705025,73393,778418,540661,538301,477689,270775,182823,153041,15662,2178952,1286726,3465678,2116007,776583,506583,6386,430363,216,497,819,2251,341166,172901,719,125452,10160,100286,Uttar Pradesh,Rae Bareli,26.253902840059787,81.22260463378181,94.0,58.0,67.0,48.0
159,UTTAR PRADESH,Farrukhabad,1885204,1006240,878964,1092677,654827,437850,312712,1292937,245089,135679,43528,167971,1596278,276846,3137,3160,3161,487,100,2035,59209,88081,2624,18733,316647,94843,411490,270550,330084,257279,184298,115069,110391,9368,1277039,710960,1987999,1224584,411153,246795,2672,255543,57,123,860,1250,158537,108322,210,49109,8522,41197,Uttar Pradesh,Farrukhabad,27.45063297872342,79.4406284574468,87.0,58.0,65.0,50.0
160,UTTAR PRADESH,Kannauj,1656616,881776,774840,1017087,603596,413491,309980,1131940,239350,129517,51330,104479,1375788,273967,1263,504,2033,606,65,2390,32510,61491,2488,18082,299785,65985,365770,237853,283674,263749,175582,107628,95072,7194,1170752,543034,1713786,1069916,361028,223535,2137,226228,67,190,942,1496,146596,72121,297,47225,2930,60021,Uttar Pradesh,Kannauj,26.993988617886185,79.64437940379408,88.0,61.0,68.0,53.0
161,UTTAR PRADESH,Etawah,1581810,845856,735954,1062003,623583,438420,388283,1075738,170827,158026,20803,156416,1457892,113961,1362,1045,1733,3917,94,1806,47520,113098,2964,21506,265643,85483,351126,171216,292852,298700,195192,121283,118571,13400,1211214,397708,1608922,979633,362026,237786,2365,199665,122,240,843,1439,138521,92232,234,58927,7502,44580,Uttar Pradesh,Etawah,26.78817670157068,79.07621806282728,87.0,67.0,74.0,60.0
162,UTTAR PRADESH,Auraiya,1379545,740040,639505,930836,546198,384638,391622,937522,166731,151727,12533,111032,1273546,101963,1004,371,332,228,444,1657,32687,65479,2404,14279,255836,58438,314274,133123,291837,282449,168866,101542,79012,6531,1063360,276224,1339584,856336,320763,202054,392,185001,34,81,490,722,122958,85631,117,46112,1947,39781,Uttar Pradesh,Auraiya,26.66892394014961,79.42637057356607,86.0,67.0,74.0,60.0
163,UTTAR PRADESH,Kanpur Dehat,1796184,963255,832929,1170243,692964,477279,460544,1167320,224986,234069,20783,149026,1612968,176327,1300,478,819,155,103,4034,23831,49753,2682,25354,363933,41323,405256,235341,344866,341845,223529,157167,97740,5930,1406418,475166,1881584,1100820,415918,276272,3174,251016,120,218,513,1138,167007,85797,287,53449,1260,76669,Uttar Pradesh,Kanpur Dehat,26.43047641196011,79.98710083056478,86.0,65.0,72.0,57.0
165,UTTAR PRADESH,Jalaun,1689974,906092,783882,1075196,653430,421766,468178,1069210,196613,243035,26109,155007,1509708,171581,1148,463,2875,256,145,3798,42616,104176,2217,18615,304856,91565,396421,169207,327534,282919,167911,104699,106888,10399,1169557,461666,1631223,1002817,410090,274954,2113,221913,80,84,789,1062,136422,107861,109,52267,1875,42936,Uttar Pradesh,Jalaun,26.067954587155988,79.36686911314993,87.0,64.0,72.0,54.0
166,UTTAR PRADESH,Jhansi,1998603,1057436,941167,1304513,783705,520808,562505,1183689,228881,248072,48648,289313,1823930,147842,7050,4951,1203,7328,311,5988,94342,183340,8517,40774,309592,195321,504913,184997,370685,341371,186348,99814,92586,11783,1287584,483088,1770672,1171301,510728,308331,8243,223433,293,416,2140,3606,152745,135508,757,93390,8362,69967,Uttar Pradesh,Jhansi,25.45581535234902,78.89954580536917,89.0,65.0,74.0,55.0
167,UTTAR PRADESH,Lalitpur,1221592,641011,580581,641191,397586,243605,240519,718241,267580,131354,14882,89535,1163804,33724,1351,1034,69,20390,41,1179,20720,77082,1079,9906,258013,43819,301832,185575,202692,154118,61543,32237,34658,3535,674358,509536,1183894,793551,265080,159666,3295,163443,72,237,111,517,115487,36945,97,20604,2110,65446,Uttar Pradesh,Lalitpur,24.58877161016945,78.60082330508473,91.0,52.0,62.0,42.0
168,UTTAR PRADESH,Hamirpur,1104285,593537,510748,653299,408125,245174,241198,660630,130314,181449,19876,112016,1010014,91269,814,196,74,41,273,1604,20175,55929,1196,11037,256081,55300,311381,159593,238344,211029,103334,59914,59612,4094,835920,364848,1200768,660774,260368,181109,2034,158137,99,255,543,987,120508,47183,90,40314,588,41867,Himachal Pradesh,Hamirpur,31.67668481012659,76.49767088607594,86.0,59.0,69.0,48.0
168,UTTAR PRADESH,Hamirpur,1104285,593537,510748,653299,408125,245174,241198,660630,130314,181449,19876,112016,1010014,91269,814,196,74,41,273,1604,20175,55929,1196,11037,256081,55300,311381,159593,238344,211029,103334,59914,59612,4094,835920,364848,1200768,660774,260368,181109,2034,158137,99,255,543,987,120508,47183,90,40314,588,41867,Uttar Pradesh,Hamirpur,25.738158381502892,79.82619479768789,86.0,59.0,69.0,48.0
169,UTTAR PRADESH,Mahoba,875958,466358,409600,488106,302283,185823,220898,526282,114244,130422,13523,91487,815142,57454,965,389,94,234,157,1523,12874,42936,1316,11298,198298,48525,246823,119002,141201,131165,60400,33810,37165,3926,526669,403649,930318,527067,201394,137393,10104,117760,123,191,351,844,97343,19921,179,18115,1170,46210,Uttar Pradesh,Mahoba,25.34529670138888,79.67863003472216,88.0,56.0,65.0,45.0
170,UTTAR PRADESH,Banda,1799410,965876,833534,1002937,630626,372311,387855,1097721,251755,273458,19098,157378,1637549,157612,1367,231,168,916,50,1517,26907,73522,1655,18612,378056,67569,445625,325773,415195,249238,114783,61702,63112,5728,1235531,588025,1823556,1120432,408527,265310,5141,247074,33,466,477,1133,187378,67368,157,51777,1547,67991,Uttar Pradesh,Banda,25.351885902503284,80.52487391304344,86.0,56.0,65.0,45.0
171,UTTAR PRADESH,Chitrakoot,991730,527721,464009,531072,330339,200733,266655,597533,160094,150695,12555,70853,955372,34559,693,63,101,285,27,630,11637,41046,827,9437,207237,23558,230795,168472,174106,124256,69641,40266,35826,3660,616227,383908,1000135,638046,214228,136669,2787,122159,107,557,671,1500,97672,26224,165,23226,1380,43562,Uttar Pradesh,Chitrakoot,25.159924623803,81.07666087551297,88.0,54.0,63.0,43.0
172,UTTAR PRADESH,Fatehpur,2632733,1384722,1248011,1512166,911003,601163,651480,1568804,328758,425366,51555,258250,2274674,350700,2201,402,172,199,47,4338,43492,75263,3385,33501,558807,77733,636540,409875,463642,376472,227119,134445,116445,10212,1738210,895178,2633388,1624830,603831,395547,8525,358433,178,329,834,1766,267526,88566,425,65256,3370,116929,Uttar Pradesh,Fatehpur,25.8374362030905,80.85416203090509,90.0,57.0,66.0,48.0
173,UTTAR PRADESH,Pratapgarh,3209141,1606085,1603056,1931559,1121381,810178,709252,2142540,305746,386563,68642,305650,2731351,452394,3920,1451,7795,746,43,11441,46358,140538,5149,34400,711085,41701,752786,427626,558350,456752,332742,238011,197846,20047,2231374,1059636,3291010,2002569,703727,492097,10748,341391,394,459,2223,3747,291932,155290,671,113727,4594,87032,Uttar Pradesh,Pratapgarh,25.864842731707316,81.93530048780492,100.0,60.0,70.0,51.0
174,UTTAR PRADESH,Kaushambi,1599596,838485,761111,813424,507279,306145,555397,960510,141102,321410,30491,146083,1372381,220423,2225,522,687,545,3,2810,22034,43753,1503,15029,349856,30764,380620,184229,253910,180825,146757,89011,45341,5115,905188,670750,1575938,1034099,336401,210556,18540,232180,86,228,205,699,171705,33644,180,26654,2011,71044,Uttar Pradesh,Kaushambi,25.53587532051282,81.41811282051287,91.0,51.0,60.0,40.0
175,UTTAR PRADESH,Allahabad,5954391,3131807,2822584,3665727,2199340,1466387,1309851,3842484,474283,541146,185877,910601,5102041,796756,13782,4377,4391,2247,305,30492,204357,391542,24122,85491,983266,265304,1248570,823863,934881,738076,596615,502826,428871,36764,4061896,1756098,5817994,3764404,1335224,818137,36626,498927,924,1770,4592,8602,384892,322833,1316,252326,15852,190828,Uttar Pradesh,Allahabad,25.392038662316445,82.05172446982063,90.0,62.0,70.0,52.0
176,UTTAR PRADESH,Bara Banki,3260699,1707073,1553626,1692458,1010518,681940,864559,2067849,458479,421973,77235,235163,2505444,737106,4857,2090,1553,3016,211,6422,60554,108116,3159,26293,635840,79068,714908,533140,420824,350564,197780,132332,113799,12281,1760720,1540841,3301561,2043335,709494,445269,62601,434135,149,332,2259,3101,239391,264344,361,110385,1497,63982,Uttar Pradesh,Bara Banki,26.922777025232424,81.35762350597606,91.0,52.0,59.0,44.0
177,UTTAR PRADESH,Faizabad,2470996,1259628,1211368,1450901,838339,612562,555047,1639787,260406,272734,43505,254564,2094271,365806,3225,1912,737,358,185,4502,58328,127754,4746,28625,510378,79288,589666,356093,361114,347114,231129,176303,179996,18947,1670696,981915,2652611,1534832,543148,367332,25684,317094,131,322,1667,2422,153953,229802,302,90607,2351,34074,Uttar Pradesh,Faizabad,26.60589185185181,82.00783530864202,96.0,59.0,67.0,51.0
178,UTTAR PRADESH,Ambedkar Nagar,2397888,1212410,1185478,1486939,846676,640263,591125,1610490,213814,301120,58520,213944,1985654,401678,2536,869,1817,235,33,5066,21512,99581,2509,27308,501559,65031,566590,342667,392873,353570,247028,172872,194387,15458,1718855,813502,2532357,1499494,515229,367234,15931,260490,107,282,3779,4621,155590,174989,453,97529,853,33878,Uttar Pradesh,Ambedkar Nagar,26.39119025974028,82.68282142857147,98.0,62.0,70.0,54.0
179,UTTAR PRADESH,Sultanpur,3797117,1914586,1882531,2239902,1300248,939654,851587,2554485,338890,501634,85785,316323,3119590,650261,4453,1629,9989,426,336,10433,55055,233701,5956,44008,839737,49891,889628,460210,637015,526973,306046,188848,176414,15277,2310783,1118891,3429674,2376875,828222,580164,11856,415868,317,476,2001,3368,300237,227335,574,154994,4090,100353,Uttar Pradesh,Sultanpur,26.2846386419753,82.05710456790123,98.0,59.0,68.0,50.0
180,UTTAR PRADESH,Bahraich,3487731,1843884,1643847,1398368,878285,520083,509307,2335571,430227,482897,37965,201071,2291892,1169330,6400,8212,2793,1177,38,7889,38940,85814,2681,35463,698520,61742,760262,447648,493760,215939,104762,65106,47690,7028,1381933,1920966,3302899,2275746,754346,446242,11397,391416,176,277,2008,2640,220216,326580,179,187350,2502,48382,Uttar Pradesh,Bahraich,27.691776300578027,81.46779783237004,89.0,40.0,48.0,32.0
182,UTTAR PRADESH,Balrampur,2148665,1114721,1033944,868357,544943,323414,277212,1388412,276614,328768,29916,124955,1333242,805975,3228,900,1866,198,87,3169,16229,57400,1551,15510,410070,35768,445838,379253,227932,122911,65516,40633,37109,2777,876131,1332817,2208948,1415213,442339,283947,7166,219396,73,233,1174,1679,104918,191185,199,85828,516,24888,Uttar Pradesh,Balrampur,27.449076537911324,82.47158326180256,93.0,40.0,49.0,31.0
183,UTTAR PRADESH,Gonda,3433919,1787146,1646773,1679994,1034181,645813,531973,2263367,440340,431532,65299,233381,2739076,678615,4735,1893,649,338,57,8556,45517,104084,4313,31811,673578,52794,726372,678171,425584,305644,192664,144067,118176,8722,1873028,1620782,3493810,2223078,734903,464584,11354,338812,203,614,2406,3782,217341,288071,559,188037,1831,30149,Uttar Pradesh,Gonda,27.157215552099505,82.0226888024882,92.0,49.0,58.0,39.0
185,UTTAR PRADESH,Basti,2464464,1255272,1209192,1393783,819719,574064,513959,1680776,296928,282260,36856,167644,2082976,364510,3493,900,9753,107,99,2626,37593,108101,3423,30244,513960,31065,545025,470355,349221,324085,211477,162961,143642,13030,1674771,1021192,2695963,1574037,519265,363891,7271,248616,123,354,2621,3449,161329,193400,351,125645,1065,25061,Uttar Pradesh,Basti,26.833880454545447,82.69790590909092,96.0,57.0,65.0,47.0
186,UTTAR PRADESH,Sant Kabir Nagar,1715183,869656,845527,954949,567098,387851,369039,1175714,149604,241825,28884,119156,1300586,404410,1766,447,4393,95,35,3451,17671,79525,2031,19729,324972,27179,352151,341757,290532,205875,129442,86528,63506,8882,1126522,683053,1809575,1108368,352395,250502,3918,162394,120,283,1649,2341,109340,130175,289,91688,1904,18525,Uttar Pradesh,Sant Kabir Nagar,26.791596516393444,83.0387764344262,97.0,56.0,65.0,46.0
188,UTTAR PRADESH,Gorakhpur,4440895,2277777,2163118,2700328,1593890,1106438,936061,3089266,255660,454931,82965,558073,4009037,403847,9662,2123,2848,460,207,12711,149727,296619,14597,65360,761958,189170,951128,873031,618398,560246,425913,316166,273903,36253,3103910,1453960,4557870,2755630,992114,659677,33474,446270,308,807,4952,6993,262327,390464,926,238404,16143,42575,Uttar Pradesh,Gorakhpur,26.63315886792452,83.3549560377358,95.0,61.0,70.0,51.0
189,UTTAR PRADESH,Kushinagar,3564544,1818055,1746489,1954820,1183722,771098,544231,2447571,265686,528388,57049,265850,2928462,620244,5006,767,4619,383,133,4930,29304,127331,3486,35931,742324,42775,785099,836856,424892,367405,249265,170911,119625,11970,2180924,1550315,3731239,2236842,772777,500373,54552,378703,195,567,3962,5106,214524,303575,382,171798,2702,40527,Uttar Pradesh,Kushinagar,26.892530675909864,83.92261542461007,96.0,55.0,65.0,44.0
190,UTTAR PRADESH,Deoria,3100946,1537436,1563510,1875239,1079288,795951,468663,2224700,238237,291016,50418,296575,2730957,358539,3626,818,1182,209,146,5469,60348,150001,4469,36068,597778,67928,665706,602403,473097,449571,372031,277548,194341,23334,2392325,1130108,3522433,1946336,664708,481219,8683,357083,110,293,3210,3984,165652,274621,371,109265,1942,32291,Uttar Pradesh,Deoria,26.42218856548857,83.8244070686071,102.0,60.0,70.0,51.0
191,UTTAR PRADESH,Azamgarh,4613913,2285004,2328909,2771917,1559414,1212503,1171378,3241881,425630,452055,115991,378356,3878626,718692,3810,719,5652,183,226,6005,49699,183381,6652,47324,891024,80434,971458,831966,1344726,879745,489060,312571,158303,8087,4024458,1218146,5242604,2930243,965876,699954,17840,545388,170,726,5844,7683,294403,316002,943,102270,5457,49525,Uttar Pradesh,Azamgarh,26.008290954773837,83.01220251256285,102.0,60.0,68.0,52.0
192,UTTAR PRADESH,Mau,2205968,1114709,1091259,1363044,773082,589962,474537,1509221,145225,212343,118614,220565,1769937,428555,2109,340,564,155,129,4179,40087,149908,2656,26716,352207,99321,451528,344570,410737,320743,256784,209493,150462,15771,1708560,659237,2367797,1402738,467343,323260,12627,273408,64,233,3188,3727,109751,187140,242,42095,3106,23942,Uttar Pradesh,Mau,26.01082203791469,83.50582654028433,98.0,62.0,69.0,54.0
193,UTTAR PRADESH,Ballia,3239774,1672902,1566872,1963590,1160960,802630,494698,2220291,206228,384432,72194,356629,3004240,213440,4463,892,1595,233,64,14847,62157,119972,4672,42969,564927,64454,629381,436021,515010,443440,409484,323582,200434,20283,2348254,1032533,3380787,1975934,724362,502628,36850,395909,163,455,5316,6665,130319,305850,731,75078,1502,46271,Uttar Pradesh,Ballia,25.86075638297873,84.03651978723408,94.0,61.0,69.0,51.0
194,UTTAR PRADESH,Jaunpur,4494204,2220465,2273739,2731677,1565394,1166283,990345,3056829,540762,436792,88404,371417,3981502,483750,4947,1286,7898,349,114,14358,56508,181467,8002,52398,926088,80582,1006670,665376,939616,769693,520111,353996,256398,25909,3531099,1344789,4875888,2826453,927026,689979,50746,466045,476,830,5765,7858,325066,238355,787,135340,10919,103567,Uttar Pradesh,Jaunpur,25.70141280913127,82.54315351934063,102.0,61.0,70.0,51.0
195,UTTAR PRADESH,Ghazipur,3620268,1855075,1765193,2197549,1293553,903996,726641,2415666,368943,435934,68254,331471,3233790,368153,4181,810,3145,213,184,9792,36798,105767,5309,50180,700173,61467,761640,566504,691057,563310,449909,334003,186306,12795,2803884,1008996,3812880,2234593,774130,556273,55272,434210,144,259,6163,6803,213032,213999,237,58602,3697,97930,Uttar Pradesh,Ghazipur,25.624724775583484,83.5360854578097,95.0,61.0,70.0,51.0
196,UTTAR PRADESH,Chandauli,1952756,1017905,934851,1174606,699454,475152,446786,1300213,125980,248674,58552,219337,1727869,215081,2153,1389,340,100,1175,4649,32433,99602,3492,20762,344937,50822,395759,295979,367768,276638,196240,135962,88299,7586,1368472,543247,1911719,1222695,437000,287767,5294,208048,131,374,1491,2357,128710,103011,361,38260,1895,62997,Uttar Pradesh,Chandauli,25.1180859611231,83.25307062634984,92.0,60.0,69.0,51.0
197,UTTAR PRADESH,Varanasi,3676841,1921857,1754984,2403903,1389116,1014787,486958,2456133,197952,182146,168764,671846,3107681,546987,7696,3309,1146,1898,298,7826,202055,336056,19214,57583,438935,316129,755064,467782,608174,557052,447926,351391,281652,34841,2748818,906367,3655185,2260457,856070,531549,28765,305591,248,245,2712,3706,167334,278202,501,187518,33999,96168,Uttar Pradesh,Varanasi,25.36057088888889,82.82529666666672,91.0,65.0,72.0,58.0
199,UTTAR PRADESH,Mirzapur,2496970,1312302,1184668,1428683,865837,562846,661129,1614974,178132,334372,80246,289246,2292534,195765,2373,1133,341,701,27,4096,43500,145997,4447,24518,465152,77963,543115,361642,421577,340261,232189,177109,140668,17680,1691126,868542,2559668,1590528,552177,346773,7492,274880,1218,968,853,3724,190622,98038,685,44170,7808,102159,Uttar Pradesh,Mirzapur,25.10207959183675,82.60126628571429,90.0,57.0,66.0,48.0
200,UTTAR PRADESH,Sonbhadra,1862559,971344,891215,985708,601988,383720,421661,1132160,141007,371261,29417,188714,1738769,103567,3963,1649,1747,487,1907,10470,40467,95582,5149,25220,337048,91040,428088,306218,297226,212565,120822,82614,63846,9357,1092648,745126,1837774,1203938,418914,237866,1841,210788,1027,3847,1046,7031,158004,71772,1111,47641,6067,97142,Uttar Pradesh,Sonbhadra,24.46693268858798,83.06816324951639,92.0,53.0,62.0,43.0
201,UTTAR PRADESH,Etah,1774480,947339,827141,1055202,647042,408160,281011,1228496,242396,131779,28396,143413,1611126,146346,2464,708,2887,5671,18,5260,37027,69591,2635,19712,334246,67752,401998,238019,214091,201984,178434,119665,88607,8092,1048892,718310,1767202,1149372,383707,237427,3974,220868,21,80,1093,1270,130131,120195,76,66179,9330,40148,Uttar Pradesh,Etah,27.591155309734443,78.70021858407083,87.0,59.0,68.0,49.0
203,BIHAR,Pashchim Champaran,3935042,2061110,1873932,1759481,1091226,668255,553944,2456095,217539,998833,38691,223884,3047427,865090,8469,926,1337,296,1895,9602,38414,57546,3495,41143,839514,96620,936134,1053481,543965,250243,159563,98732,70669,6035,2182688,1710878,3893566,2544205,888205,497793,4839,673647,67,521,5592,6825,282250,368844,645,19577,2006,56971,Bihar,Pashchim Champaran,27.16064352201258,84.30265911949685,91.0,45.0,53.0,36.0
204,BIHAR,Purba Champaran,5099371,2681209,2418162,2276957,1407603,869354,649726,3361832,349032,1057417,46164,284926,4086453,990349,4865,668,878,464,104,15590,52358,74979,7719,70258,1142260,101565,1243825,1280809,982506,450631,241118,121594,68781,5149,3150588,2142757,5293345,3316422,1122340,648009,12600,945481,96,471,6001,7643,430949,470416,1075,20310,2653,82938,Bihar,Purba Champaran,26.68129336734693,85.00382155612242,90.0,45.0,52.0,36.0
205,BIHAR,Sheohar,656246,346673,309573,283698,171645,112053,96655,439874,38727,136334,9119,32192,552492,99342,522,216,73,52,44,3505,3983,10004,478,6698,158484,7516,166000,128209,91277,37063,25657,16031,10091,661,308989,348078,657067,421241,139909,93398,1698,145016,10,55,718,923,75837,57924,140,2091,371,15128,Bihar,Sheohar,26.458380748663107,85.29539411764709,89.0,43.0,50.0,36.0
206,BIHAR,Sitamarhi,3423574,1803252,1620322,1436794,885188,551606,405714,2308991,216012,635907,37932,224732,2672311,740101,2897,261,253,188,20,7543,39465,66263,3460,42461,807294,49670,856964,733380,394422,196321,136500,92783,70549,11936,1635891,1852765,3488656,2206340,739982,449035,28217,710373,64,302,6150,7058,358607,251811,542,10992,3523,122665,Bihar,Sitamarhi,26.56570069686413,85.61172491289203,90.0,42.0,49.0,34.0
207,BIHAR,Madhubani,4487379,2329313,2158066,2155338,1340085,815253,587158,2850441,396880,940642,54934,244482,3652168,818912,3262,564,328,442,169,11534,47090,113281,5319,65548,1047552,41234,1088786,783888,771417,520875,303114,170563,137780,11352,2698989,2003079,4702068,2860455,1009424,611899,5601,859607,349,546,11240,13393,412398,346397,1258,19775,30900,142744,Bihar,Madhubani,26.41380538172716,86.16328360450552,93.0,48.0,58.0,38.0
208,BIHAR,Supaul,2229076,1155283,1073793,1033283,647672,385611,354249,1351394,201882,554271,22555,98974,1809936,409251,3758,271,136,546,42,5136,12111,51028,1845,25078,572287,27815,600102,467768,269737,157787,99530,69665,45726,5850,1116063,1220268,2336331,1453438,495020,277610,3008,425676,43,265,6634,7366,145728,273702,424,5373,12245,21374,Bihar,Supaul,26.28157893772896,86.78496465201461,93.0,46.0,56.0,36.0
209,BIHAR,Araria,2811569,1463333,1348236,1195768,727643,468125,382654,1741676,222913,691947,24367,130666,1593525,1207442,4116,371,187,1910,63,3955,17004,43290,2561,29796,659061,44213,703274,625357,426625,206161,112955,68177,39627,6938,1485840,1653766,3139606,1872943,612012,324091,2523,543136,34,611,7171,8327,213049,317350,511,8056,54827,31056,Bihar,Araria,26.211528119180603,87.30766554934816,92.0,43.0,50.0,35.0
210,BIHAR,Kishanganj,1690400,866970,823430,745056,439921,305135,113118,1161336,107862,321867,11633,87702,531236,1149095,5783,398,183,1476,28,2201,11715,58718,1093,14073,401793,43357,445150,356401,235779,89025,42778,25989,15386,3761,769119,945397,1714516,1139615,361114,188447,1224,315573,17,527,7046,7913,159662,142448,323,4264,29710,33601,Bihar,Kishanganj,26.324336758321294,87.95045007235886,95.0,44.0,51.0,37.0
211,BIHAR,Purnia,3264619,1699370,1565249,1332326,805261,527065,390991,2121301,197424,745015,28840,172039,1989420,1255641,7989,614,353,1450,650,8502,33688,86058,4170,33664,712847,85749,798596,668690,360243,184327,119259,83226,59996,11116,1486857,1798786,3285643,2155512,696556,372692,39859,606448,37,1390,16517,18780,273244,314626,836,12331,59597,52843,Bihar,Purnia,25.81714801901739,87.40447606973065,92.0,41.0,47.0,34.0
212,BIHAR,Katihar,3071029,1600430,1470599,1280190,762256,517934,263100,2057463,168857,672291,20577,151841,1684589,1365645,8659,2754,212,507,2141,6522,32570,60900,2941,27263,668232,69838,738070,472616,444260,237243,133811,88498,57114,11896,1445438,1705551,3150989,2054202,660403,353483,2941,580446,61,916,15849,17306,239547,314391,480,13810,44891,63125,Bihar,Katihar,25.56565356037151,87.70466083591326,92.0,42.0,48.0,35.0
213,BIHAR,Madhepura,2001762,1047559,954203,834577,517666,316911,346275,1224216,190809,484062,16347,86328,1753829,241760,1342,170,60,133,81,4387,12302,23236,1397,23309,486278,24000,510278,340813,189431,114474,99437,79891,44955,6509,875510,1202278,2077788,1311771,444235,242382,3374,384905,70,148,6436,6937,153322,218811,283,6388,9086,28868,Bihar,Madhepura,25.77341929460581,86.8978443983403,91.0,42.0,49.0,33.0
214,BIHAR,Saharsa,1900661,997174,903487,804996,506374,298622,317249,1250763,164600,356833,18651,109814,1629254,266620,1292,197,60,109,8,3121,21651,41342,1668,19415,432651,38046,470697,348300,194897,104182,90182,64560,47051,6016,855188,1151349,2006537,1249692,415863,233870,1236,349271,104,299,7281,7992,158574,174742,308,6629,10505,34896,Bihar,Saharsa,25.821270696721303,86.54670819672135,91.0,42.0,51.0,33.0
215,BIHAR,Darbhanga,3937385,2059949,1877436,1816634,1125566,691068,615688,2713745,236673,642115,44846,300006,3042729,881476,3534,832,245,236,101,8232,59510,127442,6280,53205,907174,95539,1002713,672797,490534,332382,224622,152540,129597,26073,2028545,2203198,4231743,2535344,865971,529314,6756,771056,111,860,8972,11188,332426,345511,1245,19499,38607,127849,Bihar,Darbhanga,26.146187719298258,85.97387352472099,91.0,46.0,55.0,37.0
216,BIHAR,Muzaffarpur,4801062,2527497,2273565,2509232,1487117,1022115,751975,3253476,273436,769001,65253,439896,4032773,745546,5149,933,288,382,98,15893,87796,180651,10290,73012,998694,120700,1119394,1092952,743623,419433,299475,194920,138916,14475,2903794,1924438,4828232,3016735,1079189,697108,8030,874936,209,570,11837,14071,414460,446177,1455,44121,27130,87226,Bihar,Muzaffarpur,26.18664417177915,85.32745092024543,90.0,52.0,59.0,45.0
217,BIHAR,Gopalganj,2562012,1267666,1294346,1382998,793905,589093,320064,1833811,208959,338666,26049,154527,2119262,436057,2463,271,167,133,28,3631,31193,69375,3707,33596,515925,38133,554058,540603,470828,291624,223776,123249,79109,7690,1736879,977719,2714598,1642807,546202,370662,2341,399026,70,229,2591,3307,143078,255329,417,16485,786,23320,Bihar,Gopalganj,26.44874364161851,84.34636127167629,102.0,54.0,63.0,46.0
218,BIHAR,Siwan,3330464,1675090,1655374,1930175,1115906,814269,386685,2398048,264928,376344,31244,259900,2712635,608282,2618,369,407,359,86,5708,42384,52935,3834,37833,632514,41858,674372,689880,612635,445257,355277,186817,119164,12091,2421121,1207119,3628240,2115448,713597,498299,3120,518473,58,259,2685,3415,158086,358850,413,19043,1279,27943,Bihar,Siwan,26.1736372013652,84.33766552901022,99.0,58.0,67.0,49.0
219,BIHAR,Saran,3951862,2022821,1929041,2157454,1285767,871687,474066,2911631,232097,493461,42103,272570,3534772,406449,2330,371,229,322,107,7282,51822,94787,4509,37442,701323,76299,777622,793945,693465,433759,361171,213251,148065,9848,2653504,1313700,3967204,2516115,847031,585386,3330,578710,71,435,6158,7068,207758,381637,404,27833,5389,52347,Bihar,Saran,25.89656077844312,84.82266287425155,95.0,55.0,64.0,45.0
220,BIHAR,Vaishali,3495021,1844535,1650486,1926740,1152576,774164,738031,2434677,255017,502637,36958,265732,3152346,333980,2203,707,362,246,71,5106,47300,70001,4810,39564,699317,51494,750811,810191,487594,370247,291392,178320,124448,9094,2271286,1479152,3750438,2176701,759132,486032,73156,569778,183,458,6561,8111,295371,259500,909,18159,11051,77755,Bihar,Vaishali,25.8134703180212,85.39247597173153,89.0,55.0,62.0,47.0
221,BIHAR,Samastipur,4261566,2230003,2031563,2142880,1293575,849305,803128,2918166,299039,721629,47917,274815,3800598,452370,2126,554,292,231,112,5283,46123,88021,5379,50918,1012979,43486,1056465,781038,710468,438908,284082,186153,129933,19126,2549708,1996651,4546359,2766930,913339,568812,12485,797103,100,542,7697,9429,384786,352172,1090,20385,34740,113395,Bihar,Samastipur,25.793205563909765,85.94833323308269,91.0,50.0,58.0,42.0
222,BIHAR,Begusarai,2970541,1567660,1402881,1548673,918507,630166,432270,2032359,146035,430870,58167,303110,2554330,407348,2209,402,229,276,57,5690,49493,120373,4644,43127,594377,139248,733625,577601,484502,291877,207136,144783,101836,14599,1822334,1242551,3064885,1951688,644874,369996,3983,547417,135,211,8661,9665,219003,313654,658,21384,4641,63453,Bihar,Begusarai,25.54302613168723,86.12560144032932,89.0,52.0,59.0,45.0
223,BIHAR,Khagaria,1666886,883786,783100,768028,461153,306875,247161,1106081,104517,325731,20816,109741,1486989,175588,1253,143,79,86,115,2633,15401,40641,1580,21654,373696,21007,394703,350601,233494,130004,100555,65931,38697,5969,925251,903323,1828574,1114645,355531,195796,914,311073,50,183,3392,3924,148230,142226,299,9814,6515,37245,Bihar,Khagaria,25.53558891454964,86.56593256351037,89.0,46.0,52.0,39.0
224,BIHAR,Bhagalpur,3037766,1615663,1422103,1573066,937669,635397,318569,2054238,135161,475228,60461,312678,2487866,537098,3556,415,180,1050,32,7569,63241,174534,6764,46929,522527,130634,653161,614644,524322,300767,247079,154643,118843,16119,1976417,1139715,3116132,1952879,674660,397654,12573,437176,208,1431,14245,16767,209060,250177,883,45919,30554,104069,Bihar,Bhagalpur,25.277192885375477,87.04213814229242,88.0,52.0,58.0,45.0
225,BIHAR,Banka,2034763,1067140,967623,965321,590961,374360,247858,1263683,172440,462614,26680,109346,1772655,250925,6138,139,113,94,1035,3664,15459,62359,1704,22300,425604,18492,444096,408188,386707,196305,120653,63103,35767,3922,1214645,879831,2094476,1291235,462080,278863,2585,253728,329,5796,5121,11712,161124,108991,466,15071,2243,109898,Bihar,Banka,24.832355642023337,86.8664916342413,91.0,47.0,55.0,39.0
226,BIHAR,Munger,1367765,729041,638724,801817,473741,328076,183846,941107,45953,196449,16690,167566,1252319,110416,1815,338,95,145,61,2576,49141,90461,2653,17946,222281,85782,308063,226699,158699,146414,147152,101907,64469,4394,849734,498676,1348410,860147,316713,188319,2586,184033,118,862,4871,6270,93833,126411,419,20237,7168,43505,Bihar,Munger,25.198537962962963,86.54173672839504,88.0,59.0,65.0,51.0
227,BIHAR,Lakhisarai,1000912,526345,474567,507270,305182,202088,153209,674336,78532,159970,13546,74528,956396,40886,487,140,52,78,52,2821,12938,44491,1186,8862,175882,31763,207645,172076,149312,111684,85807,48001,27261,3814,597955,450967,1048922,650642,218840,130655,775,127198,184,425,3221,4162,58733,75362,332,9477,1875,30335,Bihar,Lakhisarai,25.183449321266963,86.12825701357468,90.0,51.0,58.0,43.0
228,BIHAR,Sheikhpura,636342,329743,306599,328676,196431,132245,131115,411687,54511,109696,9917,50531,596102,37653,313,75,41,43,31,2084,6803,20065,631,8873,108293,24345,132638,129673,110525,59529,52860,33856,19676,3399,409518,305609,715127,413475,136898,85045,924,85547,75,49,2275,2558,42462,38651,159,5094,526,22635,Bihar,Sheikhpura,25.12472436548223,85.77839390862943,93.0,52.0,60.0,43.0
229,BIHAR,Nalanda,2877653,1497060,1380593,1519933,919558,600375,607672,1832233,221240,534021,52585,237574,2669775,198033,1978,393,414,561,64,6435,43761,101378,4156,43848,514141,102522,616663,581978,486266,320839,274556,177358,133032,11159,1985188,1324385,3309573,1829128,642197,403129,3199,390009,325,303,10732,12252,164405,223694,892,38617,6072,99223,Bihar,Nalanda,25.229345508982053,85.48053113772461,92.0,53.0,61.0,43.0
230,BIHAR,Patna,5838465,3078512,2759953,3459679,2028047,1431632,920918,3956579,271216,658203,85349,867118,5356075,439952,12551,4803,1062,2151,203,21668,321307,546859,40692,132582,657991,552103,1210094,1244842,1095655,920051,698351,463361,452340,46126,4920726,2590473,7511199,3626564,1382654,815638,13609,666585,463,885,14948,17401,252246,607942,1105,231255,90643,97253,Bihar,Patna,25.40297114503818,85.3198433587787,90.0,59.0,66.0,52.0
231,BIHAR,Bhojpur,2728407,1430380,1298027,1599151,973486,625665,425402,1905914,190896,364875,47985,218737,2518216,197819,2165,544,647,1472,48,7496,45763,62153,3661,34658,434559,77368,511927,581580,605307,367059,313509,163303,131137,10630,2172525,1005140,3177665,1722387,613072,387389,5559,387248,81,268,4615,5428,78650,312557,464,15589,3508,24348,Bihar,Bhojpur,25.50666439393939,84.49407803030304,91.0,59.0,68.0,48.0
232,BIHAR,Buxar,1706352,887977,818375,989807,593544,396263,251737,1168030,132472,251790,26122,127938,1591454,105423,2125,248,5090,97,57,1858,27362,46760,1784,19324,299252,35405,334657,331675,420187,256124,178044,89306,64117,5224,1344677,457814,1802491,1074754,375372,253998,2228,240965,94,212,3395,4002,54463,188476,301,10728,3437,19459,Bihar,Buxar,25.48593018867924,84.08808081760995,92.0,58.0,67.0,48.0
234,BIHAR,Rohtas,2959918,1543546,1416372,1799832,1061783,738049,549546,2035039,218087,405544,48512,252736,2645415,300487,2889,2569,1584,252,537,6185,41659,114893,4594,36279,512383,95678,608061,535187,548971,399053,333053,194928,161555,16006,2188753,876443,3065196,1875174,673742,407193,3809,412516,121,556,5613,6761,73129,356548,471,25242,5158,26201,Bihar,Rohtas,24.99170460829495,83.9350762672811,92.0,61.0,69.0,52.0
235,BIHAR,Aurangabad,2540073,1318684,1221389,1466002,868733,597269,612064,1702303,178525,426096,40652,192497,2291133,237353,2218,295,334,775,19,7946,24106,44456,2362,31168,428291,49006,477297,559512,482199,302662,253142,136783,91371,8329,1833998,784131,2618129,1626969,564571,340948,7585,349524,170,221,5513,6326,101279,247664,422,13998,2770,38179,Bihar,Aurangabad,24.774291867469877,84.45986024096379,93.0,58.0,66.0,49.0
235,BIHAR,Aurangabad,2540073,1318684,1221389,1466002,868733,597269,612064,1702303,178525,426096,40652,192497,2291133,237353,2218,295,334,775,19,7946,24106,44456,2362,31168,428291,49006,477297,559512,482199,302662,253142,136783,91371,8329,1833998,784131,2618129,1626969,564571,340948,7585,349524,170,221,5513,6326,101279,247664,422,13998,2770,38179,Maharashtra,Aurangabad,20.0979228832952,75.32072196796334,93.0,58.0,66.0,49.0
236,BIHAR,Gaya,4391418,2266566,2124852,2297613,1368803,928810,1334351,2727356,370759,783505,87178,422620,3876395,488121,3943,913,870,1723,108,19345,57738,112617,6856,57011,696289,111282,807571,902272,757690,447480,342254,191824,131163,12047,2784730,1953368,4738098,2810026,936630,537333,107429,577098,573,1505,8979,12336,246837,312298,1279,37002,15636,131370,Bihar,Gaya,24.7266541547278,84.94291217765044,94.0,52.0,60.0,44.0
237,BIHAR,Nawada,2219146,1144668,1074478,1091012,659474,431538,565112,1402105,216400,397505,40018,163118,1964620,244394,1299,250,176,279,80,8048,20522,31162,1841,28411,379551,45323,424874,601011,368649,195072,161127,95943,64585,3130,1489517,1091439,2580956,1440781,485628,288805,3932,299668,238,889,7409,9102,131390,149765,566,10224,2137,65594,Bihar,Nawada,24.825708836206903,85.61594568965519,94.0,49.0,58.0,40.0
238,BIHAR,Jamui,1760405,916064,844341,858588,534385,324203,302649,1032834,156491,331466,105637,133977,1525746,217621,8443,162,159,87,3438,4749,12984,32633,1839,22414,325909,30851,356760,420472,317612,153973,104211,56137,29633,3439,1085477,765297,1850774,1135919,392052,227016,5418,162989,844,5009,3450,10169,153708,66941,866,12828,2079,87642,Bihar,Jamui,24.78418380462726,86.26316298200514,92.0,49.0,58.0,38.0
239,BIHAR,Jehanabad,1125313,585582,539731,618881,374412,244469,222974,759935,86108,179519,15075,84676,1045117,75742,691,148,248,60,58,3249,15507,27641,1106,11302,186660,28132,214792,211761,165906,117558,112966,68748,45519,3539,725997,495877,1221874,714244,254582,155106,1381,165527,56,54,2880,3149,60659,99381,159,6054,1009,21606,Bihar,Jehanabad,25.155679045643165,84.9208124481328,92.0,55.0,64.0,45.0
245,ARUNACHAL PRADESH,Tawang,49977,29151,20826,26073,17720,8353,0,21416,7631,1581,114,19235,11842,787,776,1164,34920,72,349,67,3794,8635,96,494,10730,2452,13182,4904,4730,4029,2140,1989,1379,667,19838,19203,39041,30709,13849,5399,20,8,772,165,820,1797,3654,3806,40,7643,8,2017,Arunachal Pradesh,Tawang,27.680683962264148,91.82504245283016,71.0,52.0,61.0,40.0
246,ARUNACHAL PRADESH,West Kameng,83947,46155,37792,48492,29566,18926,0,41454,14476,1705,801,25511,31265,1970,8466,328,36087,71,5556,204,7133,14188,202,887,17889,6306,24195,8836,10317,8428,5633,3987,2693,299,40193,25606,65799,53026,22362,8493,66,92,775,693,470,2192,7026,6902,254,14074,92,2477,Arunachal Pradesh,West Kameng,27.46486582278483,92.65015750452083,82.0,58.0,64.0,50.0
247,ARUNACHAL PRADESH,East Kameng,78690,38775,39915,38449,21599,16850,0,46980,21835,1063,273,8539,12333,652,37136,36,452,23,27868,190,3583,5318,57,885,14503,5215,19718,11713,10487,8852,6213,4510,2330,142,44247,31763,76010,53752,17922,6960,56,46,1375,1309,160,3008,7097,2839,164,11181,44,4674,Arunachal Pradesh,East Kameng,27.371194055944056,93.04741486013997,103.0,49.0,56.0,42.0
248,ARUNACHAL PRADESH,Papum Pare,176573,89182,87391,121048,65794,55254,0,110801,14104,1859,1543,48266,57027,6148,84397,310,4768,139,22586,1198,22966,30539,2477,7418,20308,30180,50488,15368,21956,21376,20007,17342,13840,926,110815,30360,141175,120592,43812,11856,313,662,976,1653,409,3384,9481,19772,346,25063,502,4223,Arunachal Pradesh,Papum Pare,27.273529716981127,93.54468183962264,98.0,69.0,74.0,63.0
249,ARUNACHAL PRADESH,Upper Subansiri,83448,41758,41690,45278,24807,20471,0,50078,21690,1846,481,9353,13474,521,8779,28,297,11,59449,889,3123,5373,139,750,14542,4672,19214,10219,16118,15339,10348,8017,4276,473,64790,28364,93154,56054,20055,7230,109,47,903,978,1629,3616,7080,3847,106,11712,11,4614,Arunachal Pradesh,Upper Subansiri,28.277196566523585,93.8991435622318,100.0,54.0,59.0,49.0
250,ARUNACHAL PRADESH,West Siang,112274,58168,54106,64746,36777,27969,0,63097,28852,1384,298,18643,15881,2218,29969,577,3311,49,60005,264,6115,14204,303,1300,22272,8503,30775,14227,17675,15908,11441,8418,6030,521,74220,27956,102176,70415,28305,13469,85,541,882,914,437,2260,7809,9685,27,17389,84,2980,Arunachal Pradesh,West Siang,28.106296920289843,94.53510344202908,93.0,58.0,63.0,52.0
251,ARUNACHAL PRADESH,East Siang,99214,50116,49098,62576,34210,28366,0,58992,20185,3565,493,15979,27854,2289,18254,69,776,30,49393,549,4866,14231,450,1582,19497,9524,29021,9938,13713,13968,10937,9498,6540,525,65119,21543,86662,61993,25334,11802,85,3798,485,633,194,1447,7331,7504,135,12954,455,4260,Arunachal Pradesh,East Siang,28.15382352941176,95.06499226006191,98.0,63.0,68.0,58.0
252,ARUNACHAL PRADESH,Upper Siang,35320,18699,16621,18195,10723,7472,0,17676,9976,804,591,6273,5261,411,5643,27,2577,7,20967,427,1504,6198,97,392,8569,2182,10751,3952,5584,4915,2935,2211,1349,46,20992,11209,32201,21090,8910,5252,68,1,220,35,114,374,3801,2537,5,6796,1,848,Arunachal Pradesh,Upper Siang,28.8309244897959,95.00155765306124,89.0,52.0,57.0,45.0
253,ARUNACHAL PRADESH,Changlang,148226,76948,71278,73174,44027,29147,0,85260,39732,4208,496,18530,47683,2134,35969,94,50381,95,11738,132,4762,14593,170,1486,33422,6498,39920,20425,22537,17354,10032,5641,3633,834,80456,57290,137746,96630,35018,16414,164,9164,979,1748,385,3164,10346,12040,52,12297,2057,6042,Arunachal Pradesh,Changlang,27.36048479338845,96.37552644628106,93.0,49.0,57.0,41.0
254,ARUNACHAL PRADESH,Tirap,111975,57604,54371,47974,29313,18661,0,61806,35967,1811,836,11555,20682,1103,83361,61,778,43,5325,622,3104,16026,98,888,18420,6500,24920,13585,16989,12077,7834,4305,2134,182,57106,50628,107734,71785,25669,14423,98,133,3127,1627,748,5886,7290,4989,384,11931,117,7206,Arunachal Pradesh,Tirap,26.94406229508198,95.41470327868862,94.0,43.0,51.0,34.0
255,ARUNACHAL PRADESH,Lower Subansiri,83030,41843,41187,54057,29470,24587,0,52828,13656,1968,435,14143,9551,1482,34402,27,193,13,37085,277,4211,12493,381,1598,18112,5365,23477,8492,10821,11661,9861,7674,5230,295,54034,17273,71307,55258,20305,7412,55,142,425,600,346,1540,5240,7800,169,12831,142,2094,Arunachal Pradesh,Lower Subansiri,27.70849297297297,93.96226108108112,98.0,65.0,70.0,60.0
256,ARUNACHAL PRADESH,Kurung Kumey,92076,45318,46758,36606,20258,16348,0,54032,27417,2947,833,6847,4859,471,51189,43,121,81,34158,1154,586,3911,95,969,18603,1092,19695,12661,15054,12264,6997,4353,2031,299,53659,42621,96280,64379,20713,6836,148,99,3613,2385,1725,8113,7920,1688,390,6770,99,6354,Arunachal Pradesh,Kurung Kumey,28.04853351800553,93.24531994459834,103.0,40.0,45.0,35.0
258,ARUNACHAL PRADESH,Lower Dibang Valley,54080,28053,26027,31849,18087,13762,0,31754,9687,3354,233,9052,28915,2247,9213,33,2932,19,10393,328,3068,5932,207,742,12000,3950,15950,5875,7957,7351,5508,3570,2795,85,33141,14406,47547,35140,13254,5652,34,2577,81,750,222,1069,3148,5416,16,7059,139,2319,Arunachal Pradesh,Lower Dibang Valley,28.32651730103806,95.76567335640142,93.0,59.0,64.0,53.0
259,ARUNACHAL PRADESH,Lohit,145726,76221,69505,83062,48380,34682,0,84781,29909,7789,786,22461,99020,3846,10684,210,24452,104,7277,133,6549,17157,312,1471,33599,11372,44971,19306,25179,20643,13070,7612,5180,584,91574,52421,143995,94890,35493,15195,148,16855,104,1739,456,2480,7993,16365,181,8500,2548,5049,Arunachal Pradesh,Lohit,27.946785273972623,96.59670770547945,91.0,57.0,63.0,50.0
261,NAGALAND,Mon,250260,131753,118507,119626,67432,52194,0,102606,113473,10836,1608,21737,8102,3444,236494,84,1256,314,1,565,1080,14398,178,2844,43607,7415,51022,37431,46055,30500,7628,3565,1772,107,127058,130529,257587,168773,53600,27437,450,111,5527,1610,1047,10259,18725,8005,2075,20867,58,14617,Nagaland,Mon,26.69207374301676,95.03072988826828,90.0,48.0,51.0,44.0
262,NAGALAND,Mokokchung,194622,101092,93530,159494,83479,76015,0,94555,48925,9166,3798,38178,9840,2057,181847,78,442,66,6,286,7236,40154,537,2728,37536,17742,55278,20259,43483,54035,27425,13077,10299,870,169448,22555,192003,111243,52853,30363,163,180,2388,1162,1114,12265,21415,10166,7601,24062,164,10763,Nagaland,Mokokchung,26.478911764705888,94.522426006192,93.0,82.0,83.0,81.0
263,NAGALAND,Zunheboto,140757,71217,69540,102881,53504,49377,0,61291,44723,11955,2025,20763,2580,772,136995,39,286,6,2,77,1433,28846,261,2008,31267,6044,37311,16523,30889,35113,17282,8821,5560,1107,115295,25988,141283,91709,32267,16730,51,108,2908,110,330,8042,15352,5742,4694,18102,107,9239,Nagaland,Zunheboto,26.028178205128206,94.50026666666668,98.0,73.0,75.0,71.0
264,NAGALAND,Wokha,166343,84505,81838,128208,67385,60823,0,87931,47473,6438,1965,22536,5605,2043,158236,34,318,8,20,79,3228,25268,198,1757,38499,8170,46669,15865,37024,41627,18746,10223,8030,401,131916,25048,156964,106951,40510,18811,71,475,3460,1542,882,12121,12659,4293,6237,8234,225,16317,Nagaland,Wokha,26.202611551155112,94.1990815181518,97.0,77.0,80.0,74.0
265,NAGALAND,Dimapur,378811,197394,181417,278037,150142,127895,0,227461,24517,8990,5073,112770,108900,31212,234239,566,1270,2148,157,319,42378,71413,3303,12077,49116,62853,111969,34539,61815,80076,44343,26712,27532,2939,277956,58926,336882,243392,98601,36618,200,24735,834,1033,1561,4462,17929,51177,1034,10539,16544,7626,Nagaland,Dimapur,25.814176811594223,93.75074057971014,92.0,73.0,76.0,70.0
266,NAGALAND,Phek,163418,83743,79675,105893,57926,47967,0,83141,55091,3159,1275,20752,3563,950,158224,31,350,17,198,85,2073,36182,170,1558,38903,7295,46198,22494,32722,30434,12785,7268,5926,481,112110,44456,156566,108514,37842,16969,93,163,1761,119,375,4149,23707,6764,1894,31634,156,7420,Nagaland,Phek,25.63272986577182,94.56814563758392,95.0,65.0,69.0,60.0
267,NAGALAND,Tuensang,196596,101933,94663,117511,63653,53858,0,98442,75212,3913,1104,17925,2979,1052,191864,27,572,5,1,96,773,24998,155,2251,40690,9451,50141,29602,40900,33514,15013,6008,2760,116,127913,66450,194363,134573,43210,18762,51,10,309,296,409,3041,17195,9252,2027,28436,5,12540,Nagaland,Tuensang,26.21104453280316,94.85809880715708,93.0,60.0,62.0,57.0
270,NAGALAND,Kohima,267988,138966,129022,197489,107038,90451,0,153163,44684,2198,2072,65871,25496,4384,234955,998,1519,80,335,221,20712,50724,1928,7982,31845,44255,76100,21654,46756,57726,30518,19855,23439,1770,201718,45802,247520,173701,68485,25557,245,737,2902,642,3716,13663,22483,13645,6403,25045,602,16008,Nagaland,Kohima,25.60311428571428,93.78600657596373,93.0,74.0,77.0,70.0
272,MANIPUR,Senapati,479148,247323,231825,264477,148012,116465,1000,245526,175127,30369,4978,42307,43833,1649,426819,140,2409,53,1243,3002,2430,22798,256,2170,38008,1826,39834,46757,81735,91395,62033,40438,24940,598,347896,191001,538897,314439,111516,52008,1185,1528,4389,3547,707,10937,19706,5714,2294,18477,221,9067,Manipur,Senapati,25.08465586034914,94.03366234413956,94.0,55.0,60.0,50.0
273,MANIPUR,Tamenglong,140651,72371,68280,85006,47403,37603,22,69976,48849,1924,1710,18192,2995,589,134760,59,425,57,1144,622,1229,11541,125,1362,23982,4119,28101,11155,28461,26794,17867,11645,7102,270,103294,45317,148611,90273,33290,16924,164,61,5685,2385,689,12712,10951,3786,3953,9250,45,9740,Manipur,Tamenglong,24.98312942238265,93.49450740072204,94.0,60.0,65.0,55.0
274,MANIPUR,Churachandpur,274143,138820,135323,195935,104013,91922,443,151488,64834,8282,5067,44472,12034,2886,254979,152,495,87,2333,1177,13371,29894,837,4496,52972,4853,57825,32860,67907,65475,38567,23284,14523,509,243125,57561,300686,168608,67802,37096,637,2664,5812,7192,1003,17312,26551,8001,3305,16414,490,15364,Manipur,Churachandpur,24.30309718875504,93.38671506024085,97.0,71.0,75.0,68.0
275,MANIPUR,Bishnupur,237399,118782,118617,156333,87313,69020,22113,127462,34358,15109,11567,48903,175102,18691,4264,56,76,16,38457,737,11393,34364,676,3447,34977,21172,56149,15941,36011,50004,31775,20077,20074,1440,175322,67610,242932,135220,62907,38815,457,711,499,2332,57,23902,22505,3454,21014,19612,29,18932,Manipur,Bishnupur,24.50712111801243,93.8246236024845,100.0,66.0,74.0,58.0
276,MANIPUR,Thoubal,422168,210845,211323,269304,152617,116687,40593,226849,77331,33106,21017,63865,267146,107323,4322,106,114,24,42347,786,15994,49507,880,5110,65961,38302,104263,32396,69738,87932,55803,37899,28550,3214,315532,118088,433620,251975,107196,62060,937,9829,450,24067,1609,60307,45333,3978,34181,13391,315,35984,Manipur,Thoubal,24.545392553191498,93.97959893617023,100.0,64.0,72.0,55.0
279,MANIPUR,Ukhrul,183998,94718,89280,129829,70148,59681,248,96069,56815,3852,2233,25029,7553,1115,174112,108,635,70,32,373,1659,14026,276,2437,36084,5806,41890,20670,29382,38350,31734,22729,15636,405,158906,42156,201062,113715,43646,25165,1472,550,3970,557,86,15282,20286,3749,10669,18080,112,11755,Manipur,Ukhrul,25.05900314960629,94.44129566929138,94.0,71.0,74.0,67.0
280,MANIPUR,Chandel,144182,74579,69603,90302,51053,39249,540,67944,43255,8315,3040,21628,10810,3086,129049,136,400,59,354,288,1424,18764,184,1782,30377,3783,34160,17382,28163,30589,18971,12213,8105,240,115663,38191,153854,86255,39324,18329,274,2456,5352,8700,305,17173,11907,2681,2816,5580,185,14509,Manipur,Chandel,24.2635812987013,94.09443844155844,93.0,63.0,68.0,56.0
281,MIZORAM,Mamit,86364,44828,41536,60191,32977,27214,51,47025,28669,2553,262,7855,2989,1782,69104,13,12328,25,19,104,4010,12158,90,1073,16726,4129,20855,9328,19711,19949,10756,3180,1771,22,64717,20091,84808,55914,20082,10318,50,132,6265,2369,3028,12050,10464,2372,388,4404,22,4368,Mizoram,Mamit,23.73852942502819,92.4330803833147,93.0,70.0,74.0,66.0
282,MIZORAM,Kolasib,83955,42918,41037,65895,34147,31748,84,47283,17992,5921,585,12174,4000,4426,75210,16,108,2,46,147,8787,14853,367,1986,9669,12507,22176,11367,18046,20399,9849,3473,2530,62,65726,14217,79943,52147,20576,11167,65,450,1850,1581,258,4444,9312,4736,755,11477,421,3248,Mizoram,Kolasib,24.2020004347826,92.73470391304348,96.0,78.0,80.0,77.0
283,MIZORAM,Aizawl,400309,199270,201039,340595,169547,171048,627,225673,39266,11434,3360,120576,13249,5264,379134,105,1570,76,505,406,64710,79804,4019,21093,20570,80341,100911,29332,68214,100103,78752,37701,31310,2058,347470,38248,385718,235892,108094,56092,231,977,10321,1062,9187,21741,29769,40948,1171,55588,351,11195,Mizoram,Aizawl,23.90781335453101,92.85359459459472,101.0,85.0,85.0,85.0
284,MIZORAM,Champhai,125745,63388,62357,100802,51440,49362,17,65403,38336,5823,980,15203,1075,699,123446,9,151,45,194,126,9115,23948,186,2263,18395,12717,31112,14491,31359,30454,16259,4956,4087,78,101684,15449,117133,78778,29690,17189,88,1197,3193,343,1467,5223,15724,3082,220,17370,648,6854,Mizoram,Champhai,23.54166580976866,93.24221799485862,98.0,80.0,81.0,79.0
285,MIZORAM,Serchhip,64937,32851,32086,54476,27598,26878,32,32540,21804,1284,926,8383,991,335,63444,6,60,9,35,57,5511,12315,131,987,7472,8018,15490,8771,14985,16237,9062,2915,2128,35,54133,5963,60096,39568,15894,9404,71,173,3204,186,70,3674,6894,3737,214,8459,4,1949,Mizoram,Serchhip,23.263864705882344,92.914158496732,98.0,84.0,84.0,84.0
286,MIZORAM,Lunglei,161428,82891,78537,121122,64515,56607,178,83136,45439,10662,813,21378,5231,1290,127124,74,27543,93,5,68,14037,26394,482,3725,21479,17315,38794,22181,33313,34774,19918,8503,5509,116,124314,32451,156765,100250,39690,21424,64,409,8794,3404,1018,13706,15370,9906,490,17757,249,7341,Mizoram,Lunglei,23.007717036172675,92.63512555425892,95.0,75.0,78.0,72.0
287,MIZORAM,Lawngtlai,117894,60599,57295,62861,36444,26417,146,72328,29189,3153,613,12611,1668,522,63892,52,51549,122,2,87,5213,9283,162,1329,21993,5273,27266,19890,21114,16629,10538,3763,2515,125,74574,54874,129448,80723,25303,11831,37,223,5809,7462,213,14043,10924,1720,559,7684,131,10250,Mizoram,Lawngtlai,22.36102843137253,92.66964156862753,95.0,53.0,60.0,46.0
288,MIZORAM,Saiha,56574,28594,27980,42233,21861,20372,83,37113,8908,957,313,9283,933,514,54977,11,102,4,2,31,4783,7400,168,1194,7043,5784,12827,8422,14151,12130,7269,3628,2204,69,47873,8787,56660,37127,12784,6636,27,217,1271,633,83,2217,4699,2381,230,7068,135,3834,Mizoram,Saiha,22.35744801061008,93.02827931034489,98.0,75.0,76.0,73.0
289,TRIPURA,West Tripura,1725739,879428,846311,1361354,722998,638356,338094,1027561,115175,156108,25163,401732,1512801,152791,53622,499,2128,362,430,3106,103228,314567,6394,36186,289621,217016,506637,248343,421485,451563,156277,88122,85405,13478,1464673,279053,1743726,940424,499719,284637,959,186536,1504,1396,4122,7639,98575,213918,617,134228,82054,90977,Tripura,West Tripura,23.780166241299337,91.41310788863107,96.0,79.0,82.0,75.0
290,TRIPURA,South Tripura,876001,447544,428457,646810,351082,295728,140168,509156,85530,111332,6375,163608,736015,49258,39258,245,49420,106,808,891,20246,133744,948,10393,219171,44906,264077,129846,223185,204201,70173,31690,26870,5160,691125,188363,879488,505558,236676,133424,343,67910,3009,2438,1080,7323,75815,54383,796,80036,31137,75085,Tripura,South Tripura,23.211874098057383,91.6065807585568,96.0,74.0,78.0,69.0
